__time,/Target/state.0,/Target/state.1,/Target/state.10,/Target/state.11,/Target/state.2,/Target/state.3,/Target/state.4,/Target/state.5,/Target/state.6,/Target/state.7,/Target/state.8,/Target/state.9,/model_state_calcs/state.0,/model_state_calcs/state.1,/model_state_calcs/state.10,/model_state_calcs/state.11,/model_state_calcs/state.2,/model_state_calcs/state.3,/model_state_calcs/state.4,/model_state_calcs/state.5,/model_state_calcs/state.6,/model_state_calcs/state.7,/model_state_calcs/state.8,/model_state_calcs/state.9,/model_state_calcs0/state.0,/model_state_calcs0/state.1,/model_state_calcs0/state.10,/model_state_calcs0/state.11,/model_state_calcs0/state.2,/model_state_calcs0/state.3,/model_state_calcs0/state.4,/model_state_calcs0/state.5,/model_state_calcs0/state.6,/model_state_calcs0/state.7,/model_state_calcs0/state.8,/model_state_calcs0/state.9,/model_state_calcs2/state.0,/model_state_calcs2/state.1,/model_state_calcs2/state.10,/model_state_calcs2/state.11,/model_state_calcs2/state.2,/model_state_calcs2/state.3,/model_state_calcs2/state.4,/model_state_calcs2/state.5,/model_state_calcs2/state.6,/model_state_calcs2/state.7,/model_state_calcs2/state.8,/model_state_calcs2/state.9,/model_state_calcs3/state.0,/model_state_calcs3/state.1,/model_state_calcs3/state.10,/model_state_calcs3/state.11,/model_state_calcs3/state.2,/model_state_calcs3/state.3,/model_state_calcs3/state.4,/model_state_calcs3/state.5,/model_state_calcs3/state.6,/model_state_calcs3/state.7,/model_state_calcs3/state.8,/model_state_calcs3/state.9,/model_state_calcs4/state.0,/model_state_calcs4/state.1,/model_state_calcs4/state.10,/model_state_calcs4/state.11,/model_state_calcs4/state.2,/model_state_calcs4/state.3,/model_state_calcs4/state.4,/model_state_calcs4/state.5,/model_state_calcs4/state.6,/model_state_calcs4/state.7,/model_state_calcs4/state.8,/model_state_calcs4/state.9,/model_state_calcs5/state.0,/model_state_calcs5/state.1,/model_state_calcs5/state.10,/model_state_calcs5/state.11,/model_state_calcs5/state.2,/model_state_calcs5/state.3,/model_state_calcs5/state.4,/model_state_calcs5/state.5,/model_state_calcs5/state.6,/model_state_calcs5/state.7,/model_state_calcs5/state.8,/model_state_calcs5/state.9,/mpc_solution/pitch,/mpc_solution/roll,/mpc_solution/thrust,/mpc_solution/yaw_rate,/true_state/state.0,/true_state/state.1,/true_state/state.10,/true_state/state.11,/true_state/state.2,/true_state/state.3,/true_state/state.4,/true_state/state.5,/true_state/state.6,/true_state/state.7,/true_state/state.8,/true_state/state.9
1738079382.671423,-0.494744,0.028856,0.000000,0.000000,1.018348,0.000000,0.000000,0.000000,0.000000,0.000000,0.000000,0.000000,,,,,,,,,,,,,,,,,,,,,,,,,,,,,,,,,,,,,,,,,,,,,,,,,,,,,,,,,,,,,,,,,,,,,,,,,,,,,,,,,,,,,,,,
1738079382.681368,-0.494769,0.028845,0.000000,0.000000,1.018358,0.000000,0.000000,0.000000,0.000000,0.000000,0.000000,0.000000,,,,,,,,,,,,,,,,,,,,,,,,,,,,,,,,,,,,,,,,,,,,,,,,,,,,,,,,,,,,,,,,,,,,,,,,,,,,,,,,,,,,,,,,
1738079382.681503,,,,,,,,,,,,,,,,,,,,,,,,,,,,,,,,,,,,,,,,,,,,,,,,,,,,,,,,,,,,,,,,,,,,,,,,,,,,,,,,,,,,,,,,,-3.070716,0.240866,-0.008632,-0.007824,0.123123,-0.000077,-0.000096,0.000277,0.048303,0.007653,-0.066085,-0.006478
1738079382.691192,-0.494774,0.028837,0.000000,0.000000,1.018348,0.000000,0.000000,0.000000,0.000000,0.000000,0.000000,0.000000,,,,,,,,,,,,,,,,,,,,,,,,,,,,,,,,,,,,,,,,,,,,,,,,,,,,,,,,,,,,,,,,,,,,,,,,,,,,,,,,,,,,,,,,
1738079382.691392,,,,,,,,,,,,,,,,,,,,,,,,,,,,,,,,,,,,,,,,,,,,,,,,,,,,,,,,,,,,,,,,,,,,,,,,,,,,,,,,,,,,,,,,,-3.070715,0.240856,0.000785,0.000533,0.123066,-0.000051,-0.000127,-0.000147,0.048514,0.008791,-0.065084,-0.003265
1738079382.701442,-0.494769,0.028841,0.000000,0.000000,1.018338,0.000000,0.000000,0.000000,0.000000,0.000000,0.000000,0.000000,,,,,,,,,,,,,,,,,,,,,,,,,,,,,,,,,,,,,,,,,,,,,,,,,,,,,,,,,,,,,,,,,,,,,,,,,,,,,,,,,,,,,,,,
1738079382.701578,,,,,,,,,,,,,,,,,,,,,,,,,,,,,,,,,,,,,,,,,,,,,,,,,,,,,,,,,,,,,,,,,,,,,,,,,,,,,,,,,,,,,,,,,-3.070724,0.240854,0.012837,0.004793,0.123036,-0.000090,-0.000099,-0.000285,0.048635,0.010838,-0.064347,-0.001562
1738079382.725189,-0.494747,0.028834,0.000000,0.000000,1.018327,0.000000,0.000000,0.000000,0.000000,0.000000,0.000000,0.000000,,,,,,,,,,,,,,,,,,,,,,,,,,,,,,,,,,,,,,,,,,,,,,,,,,,,,,,,,,,,,,,,,,,,,,,,,,,,,,,,,,,,,,,,
1738079382.725389,,,,,,,,,,,,,,,,,,,,,,,,,,,,,,,,,,,,,,,,,,,,,,,,,,,,,,,,,,,,,,,,,,,,,,,,,,,,,,,,,,,,,,,,,-3.070717,0.240857,-0.004812,-0.003821,0.123060,-0.000016,-0.000049,-0.000057,0.048594,0.008539,-0.065543,-0.001339
1738079382.725727,-0.494743,0.028851,0.000000,0.000000,1.018324,0.000000,0.000000,0.000000,0.000000,0.000000,0.000000,0.000000,,,,,,,,,,,,,,,,,,,,,,,,,,,,,,,,,,,,,,,,,,,,,,,,,,,,,,,,,,,,,,,,,,,,,,,,,,,,,,,,,,,,,,,,
1738079382.725867,,,,,,,,,,,,,,,,,,,,,,,,,,,,,,,,,,,,,,,,,,,,,,,,,,,,,,,,,,,,,,,,,,,,,,,,,,,,,,,,,,,,,,,,,-3.070714,0.240863,-0.009889,-0.003810,0.123105,0.000006,0.000001,0.000230,0.047965,0.007452,-0.065732,-0.004713
1738079382.730592,,,,,,,,,,,,,,,,,,,,,,,,,,,,,,,,,,,,,,,,,,,,,,,,,,,,,,,,,,,,,,,,,,,,,,,,,,,,,,,,,,,,,,,,,-3.070696,0.240878,-0.004069,-0.004553,0.123104,0.000111,0.000088,0.000160,0.048126,0.007928,-0.066046,-0.002332
1738079382.730859,-0.494755,0.028843,0.000000,0.000000,1.018345,0.000000,0.000000,0.000000,0.000000,0.000000,0.000000,0.000000,,,,,,,,,,,,,,,,,,,,,,,,,,,,,,,,,,,,,,,,,,,,,,,,,,,,,,,,,,,,,,,,,,,,,,,,,,,,,,,,,,,,,,,,
1738079382.741245,-0.494796,0.028844,0.000000,0.000000,1.018350,0.000000,0.000000,0.000000,0.000000,0.000000,0.000000,0.000000,,,,,,,,,,,,,,,,,,,,,,,,,,,,,,,,,,,,,,,,,,,,,,,,,,,,,,,,,,,,,,,,,,,,,,,,,,,,,,,,,,,,,,,,
1738079382.741349,,,,,,,,,,,,,,,,,,,,,,,,,,,,,,,,,,,,,,,,,,,,,,,,,,,,,,,,,,,,,,,,,,,,,,,,,,,,,,,,,,,,,,,,,-3.070715,0.240846,-0.006946,-0.003635,0.123120,-0.000036,-0.000127,0.000206,0.047612,0.007245,-0.066121,-0.004714
1738079382.751108,-0.494783,0.028834,0.000000,0.000000,1.018359,0.000000,0.000000,0.000000,0.000000,0.000000,0.000000,0.000000,,,,,,,,,,,,,,,,,,,,,,,,,,,,,,,,,,,,,,,,,,,,,,,,,,,,,,,,,,,,,,,,,,,,,,,,,,,,,,,,,,,,,,,,
1738079382.751330,,,,,,,,,,,,,,,,,,,,,,,,,,,,,,,,,,,,,,,,,,,,,,,,,,,,,,,,,,,,,,,,,,,,,,,,,,,,,,,,,,,,,,,,,-3.070728,0.240851,0.002345,0.002531,0.123080,-0.000105,-0.000064,-0.000098,0.049454,0.008446,-0.065275,0.007748
1738079382.772429,,,,,,,,,,,,,,,,,,,,,,,,,,,,,,,,,,,,,,,,,,,,,,,,,,,,,,,,,,,,,,,,,,,,,,,,,,,,,,,,,,,,,3.162171,5.801448,33203.000000,89.670570,,,,,,,,,,,,
1738079382.772459,,,,,,,,,,,,,-3.070650,0.240188,2.000000,1.565047,0.121590,0.010220,-0.031359,-0.060458,0.101254,0.055190,-0.022427,2.000000,,,,,,,,,,,,,,,,,,,,,,,,,,,,,,,,,,,,,,,,,,,,,,,,,,,,,,,,,,,,,,,,,,,,,,,,,,,,
1738079382.772475,,,,,,,,,,,,,,,,,,,,,,,,,-3.070728,0.240851,0.002345,0.002531,0.123080,-0.000105,-0.000064,-0.000098,0.049454,0.008446,-0.065275,0.007748,,,,,,,,,,,,,,,,,,,,,,,,,,,,,,,,,,,,,,,,,,,,,,,,,,,,,,,,,,,,,,,,
1738079382.772483,,,,,,,,,,,,,,,,,,,,,,,,,,,,,,,,,,,,,-3.069427,0.236898,2.000000,2.000000,0.117142,0.059214,-0.110784,-0.116942,0.211791,0.139877,0.081581,2.000000,,,,,,,,,,,,,,,,,,,,,,,,,,,,,,,,,,,,,,,,,,,,,,,,,,,,
1738079382.772490,,,,,,,,,,,,,,,,,,,,,,,,,,,,,,,,,,,,,,,,,,,,,,,,,-3.065044,0.229003,-0.021453,2.000000,0.107663,0.128078,-0.234234,-0.241382,0.322107,0.161342,0.191585,1.725304,,,,,,,,,,,,,,,,,,,,,,,,,,,,,,,,,,,,,,,,
1738079382.772496,,,,,,,,,,,,,,,,,,,,,,,,,,,,,,,,,,,,,,,,,,,,,,,,,,,,,,,,,,,,,-3.057635,0.215962,-2.000000,2.000000,0.087229,0.123007,-0.359420,-0.545275,0.424801,0.078127,0.266116,1.999999,,,,,,,,,,,,,,,,,,,,,,,,,,,,
1738079382.772502,,,,,,,,,,,,,,,,,,,,,,,,,,,,,,,,,,,,,,,,,,,,,,,,,,,,,,,,,,,,,,,,,,,,,,,,,-3.048244,0.198697,-1.999961,2.000000,0.048564,0.019317,-0.480835,-1.000000,0.525436,-0.056506,0.309248,1.999998,,,,,,,,,,,,,,,,
1738079382.772879,-0.494751,0.028828,0.000000,0.000000,1.018330,0.000000,0.000000,0.000000,0.000000,0.000000,0.000000,0.000000,,,,,,,,,,,,,,,,,,,,,,,,,,,,,,,,,,,,,,,,,,,,,,,,,,,,,,,,,,,,,,,,,,,,,,,,,,,,,,,,,,,,,,,,
1738079382.773064,,,,,,,,,,,,,,,,,,,,,,,,,,,,,,,,,,,,,,,,,,,,,,,,,,,,,,,,,,,,,,,,,,,,,,,,,,,,,,,,,,,,,,,,,-3.070721,0.240855,-0.002985,-0.000457,0.123044,-0.000031,-0.000017,-0.000280,0.049111,0.007675,-0.065647,0.003369
1738079382.773395,-0.494729,0.028844,0.000000,0.000000,1.018321,0.000000,0.000000,0.000000,0.000000,0.000000,0.000000,0.000000,,,,,,,,,,,,,,,,,,,,,,,,,,,,,,,,,,,,,,,,,,,,,,,,,,,,,,,,,,,,,,,,,,,,,,,,,,,,,,,,,,,,,,,,
1738079382.773569,,,,,,,,,,,,,,,,,,,,,,,,,,,,,,,,,,,,,,,,,,,,,,,,,,,,,,,,,,,,,,,,,,,,,,,,,,,,,,,,,,,,,,,,,-3.070715,0.240863,-0.001562,0.000284,0.123088,0.000017,0.000033,0.000064,0.048910,0.007763,-0.065546,0.001153
1738079382.781702,-0.494742,0.028851,0.000000,0.000000,1.018333,0.000000,0.000000,0.000000,0.000000,0.000000,0.000000,0.000000,,,,,,,,,,,,,,,,,,,,,,,,,,,,,,,,,,,,,,,,,,,,,,,,,,,,,,,,,,,,,,,,,,,,,,,,,,,,,,,,,,,,,,,,
1738079382.781895,,,,,,,,,,,,,,,,,,,,,,,,,,,,,,,,,,,,,,,,,,,,,,,,,,,,,,,,,,,,,,,,,,,,,,,,,,,,,,,,,,,,,,,,,-3.070706,0.240856,-0.001315,-0.000249,0.123120,0.000061,-0.000018,0.000239,0.048788,0.007726,-0.065621,0.000073
1738079382.791067,-0.494781,0.028843,0.000000,0.000000,1.018359,0.000000,0.000000,0.000000,0.000000,0.000000,0.000000,0.000000,,,,,,,,,,,,,,,,,,,,,,,,,,,,,,,,,,,,,,,,,,,,,,,,,,,,,,,,,,,,,,,,,,,,,,,,,,,,,,,,,,,,,,,,
1738079382.791264,,,,,,,,,,,,,,,,,,,,,,,,,,,,,,,,,,,,,,,,,,,,,,,,,,,,,,,,,,,,,,,,,,,,,,,,,,,,,,,,,,,,,,,,,-3.070699,0.240869,0.001945,-0.001311,0.123113,0.000085,0.000067,0.000122,0.048526,0.008203,-0.065810,-0.001521
1738079382.801471,-0.494807,0.028847,0.000000,0.000000,1.018345,0.000000,0.000000,0.000000,0.000000,0.000000,0.000000,0.000000,,,,,,,,,,,,,,,,,,,,,,,,,,,,,,,,,,,,,,,,,,,,,,,,,,,,,,,,,,,,,,,,,,,,,,,,,,,,,,,,,,,,,,,,
1738079382.801606,,,,,,,,,,,,,,,,,,,,,,,,,,,,,,,,,,,,,,,,,,,,,,,,,,,,,,,,,,,,,,,,,,,,,,,,,,,,,,,,,,,,,,,,,-3.070731,0.240853,0.006723,0.003664,0.123077,-0.000132,-0.000049,-0.000130,0.048897,0.009097,-0.065046,0.001163
1738079382.824148,,,,,,,,,,,,,,,,,,,,,,,,,,,,,,,,,,,,,,,,,,,,,,,,,,,,,,,,,,,,,,,,,,,,,,,,,,,,,,,,,,,,,3.207170,5.762028,33271.000000,89.735512,,,,,,,,,,,,
1738079382.824302,,,,,,,,,,,,,-3.070646,0.240196,2.000000,1.566180,0.121617,0.010524,-0.031125,-0.059226,0.100566,0.055976,-0.022166,2.000000,,,,,,,,,,,,,,,,,,,,,,,,,,,,,,,,,,,,,,,,,,,,,,,,,,,,,,,,,,,,,,,,,,,,,,,,,,,,
1738079382.824312,,,,,,,,,,,,,,,,,,,,,,,,,-3.070731,0.240853,0.006723,0.003664,0.123077,-0.000132,-0.000049,-0.000130,0.048897,0.009097,-0.065046,0.001163,,,,,,,,,,,,,,,,,,,,,,,,,,,,,,,,,,,,,,,,,,,,,,,,,,,,,,,,,,,,,,,,
1738079382.824318,,,,,,,,,,,,,,,,,,,,,,,,,,,,,,,,,,,,,-3.069395,0.236927,2.000000,2.000000,0.117245,0.059855,-0.110251,-0.114981,0.211186,0.140726,0.081823,2.000000,,,,,,,,,,,,,,,,,,,,,,,,,,,,,,,,,,,,,,,,,,,,,,,,,,,,
1738079382.824325,,,,,,,,,,,,,,,,,,,,,,,,,,,,,,,,,,,,,,,,,,,,,,,,,-3.064967,0.229067,-0.020336,2.000000,0.107854,0.129108,-0.233972,-0.239532,0.323272,0.162212,0.191832,1.792313,,,,,,,,,,,,,,,,,,,,,,,,,,,,,,,,,,,,,,,,
1738079382.824330,,,,,,,,,,,,,,,,,,,,,,,,,,,,,,,,,,,,,,,,,,,,,,,,,,,,,,,,,,,,,-3.057499,0.216024,-2.000000,2.000000,0.087488,0.124412,-0.360225,-0.543825,0.427680,0.078867,0.266177,1.999999,,,,,,,,,,,,,,,,,,,,,,,,,,,,
1738079382.824336,,,,,,,,,,,,,,,,,,,,,,,,,,,,,,,,,,,,,,,,,,,,,,,,,,,,,,,,,,,,,,,,,,,,,,,,,-3.048026,0.198718,-1.682331,2.000000,0.048841,0.027628,-0.481956,-1.000000,0.528445,-0.048907,0.312685,1.999998,,,,,,,,,,,,,,,,
1738079382.824616,-0.494778,0.028841,0.000000,0.000000,1.018336,0.000000,0.000000,0.000000,0.000000,0.000000,0.000000,0.000000,,,,,,,,,,,,,,,,,,,,,,,,,,,,,,,,,,,,,,,,,,,,,,,,,,,,,,,,,,,,,,,,,,,,,,,,,,,,,,,,,,,,,,,,
1738079382.824811,,,,,,,,,,,,,,,,,,,,,,,,,,,,,,,,,,,,,,,,,,,,,,,,,,,,,,,,,,,,,,,,,,,,,,,,,,,,,,,,,,,,,,,,,-3.070732,0.240090,-0.142773,0.033215,0.122630,-0.000095,-0.004613,-0.002771,0.030516,-0.015483,-0.059938,-0.109473
1738079382.825088,-0.494736,0.028841,0.000000,0.000000,1.018321,0.000000,0.000000,0.000000,0.000000,0.000000,0.000000,0.000000,,,,,,,,,,,,,,,,,,,,,,,,,,,,,,,,,,,,,,,,,,,,,,,,,,,,,,,,,,,,,,,,,,,,,,,,,,,,,,,,,,,,,,,,
1738079382.825274,,,,,,,,,,,,,,,,,,,,,,,,,,,,,,,,,,,,,,,,,,,,,,,,,,,,,,,,,,,,,,,,,,,,,,,,,,,,,,,,,,,,,,,,,-3.071217,0.240444,0.244460,-0.253247,0.123149,-0.002977,-0.001104,0.001176,-0.043425,0.041917,-0.106021,-0.520280
1738079382.831469,-0.494710,0.028864,0.000000,0.000000,1.018334,0.000000,0.000000,0.000000,0.000000,0.000000,0.000000,0.000000,,,,,,,,,,,,,,,,,,,,,,,,,,,,,,,,,,,,,,,,,,,,,,,,,,,,,,,,,,,,,,,,,,,,,,,,,,,,,,,,,,,,,,,,
1738079382.831638,,,,,,,,,,,,,,,,,,,,,,,,,,,,,,,,,,,,,,,,,,,,,,,,,,,,,,,,,,,,,,,,,,,,,,,,,,,,,,,,,,,,,,,,,-3.070902,0.240351,-0.034911,-0.031861,0.123195,-0.000193,-0.001332,0.001098,-0.015864,0.007578,-0.081786,-0.198825
1738079382.840907,-0.494760,0.028845,0.000000,0.000000,1.018362,0.000000,0.000000,0.000000,0.000000,0.000000,0.000000,0.000000,,,,,,,,,,,,,,,,,,,,,,,,,,,,,,,,,,,,,,,,,,,,,,,,,,,,,,,,,,,,,,,,,,,,,,,,,,,,,,,,,,,,,,,,
1738079382.841079,,,,,,,,,,,,,,,,,,,,,,,,,,,,,,,,,,,,,,,,,,,,,,,,,,,,,,,,,,,,,,,,,,,,,,,,,,,,,,,,,,,,,,,,,-3.070642,0.240522,-0.256507,0.049432,0.123503,0.001423,0.000093,0.002614,-0.008827,-0.031100,-0.069830,-0.096959
1738079382.851669,-0.494803,0.028831,0.000000,0.000000,1.018357,0.000000,0.000000,0.000000,0.000000,0.000000,0.000000,0.000000,,,,,,,,,,,,,,,,,,,,,,,,,,,,,,,,,,,,,,,,,,,,,,,,,,,,,,,,,,,,,,,,,,,,,,,,,,,,,,,,,,,,,,,,
1738079382.851845,,,,,,,,,,,,,,,,,,,,,,,,,,,,,,,,,,,,,,,,,,,,,,,,,,,,,,,,,,,,,,,,,,,,,,,,,,,,,,,,,,,,,,,,,-3.070728,0.240378,-0.233784,0.069508,0.123340,0.000482,-0.000800,0.000854,-0.008009,-0.040138,-0.064012,-0.062964
1738079382.872049,,,,,,,,,,,,,-3.070938,0.240329,1.867850,1.632024,0.120594,-0.007259,-0.006316,-0.110592,0.039674,-0.000145,-0.020758,2.000000,,,,,,,,,,,,,,,,,,,,,,,,,,,,,,,,,,,,,,,,,,,,,,,,,,,,,,,,,,,,,,,,,,,,,,,,,,,,
1738079382.872060,,,,,,,,,,,,,,,,,,,,,,,,,,,,,,,,,,,,,-3.071005,0.238920,2.000000,2.000000,0.113060,0.024170,-0.058075,-0.193167,0.144337,0.087627,0.078601,2.000000,,,,,,,,,,,,,,,,,,,,,,,,,,,,,,,,,,,,,,,,,,,,,,,,,,,,
1738079382.872067,,,,,,,,,,,,,,,,,,,,,,,,,,,,,,,,,,,,,,,,,,,,,,,,,-3.069105,0.233857,-0.016874,2.000000,0.100378,0.078801,-0.158809,-0.311750,0.255974,0.116515,0.186164,2.000000,,,,,,,,,,,,,,,,,,,,,,,,,,,,,,,,,,,,,,,,
1738079382.872073,,,,,,,,,,,,,,,,,,,,,,,,,,,,,,,,,,,,,,,,,,,,,,,,,,,,,,,,,,,,,-3.064540,0.224065,-2.000000,2.000000,0.077482,0.069153,-0.279366,-0.593096,0.362768,0.038285,0.265472,1.999999,,,,,,,,,,,,,,,,,,,,,,,,,,,,
1738079382.872079,,,,,,,,,,,,,,,,,,,,,,,,,,,,,,,,,,,,,,,,,,,,,,,,,,,,,,,,,,,,,,,,,,,,,,,,,,,,,,,,,,,,,-0.008315,2.273144,30346.000000,93.508072,,,,,,,,,,,,
1738079382.872096,,,,,,,,,,,,,,,,,,,,,,,,,-3.070728,0.240378,-0.233784,0.069508,0.123340,0.000482,-0.000800,0.000854,-0.008009,-0.040138,-0.064012,-0.062964,,,,,,,,,,,,,,,,,,,,,,,,,,,,,,,,,,,,,,,,,,,,,,,,,,,,,,,,,,,,,,,,
1738079382.872102,,,,,,,,,,,,,,,,,,,,,,,,,,,,,,,,,,,,,,,,,,,,,,,,,,,,,,,,,,,,,,,,,,,,,,,,,-3.057425,0.210958,-2.000000,2.000000,0.037805,-0.028314,-0.363332,-1.000000,0.410970,-0.092262,0.319339,-0.016874,,,,,,,,,,,,,,,,
1738079382.872476,-0.494789,0.028836,0.000000,0.000000,1.018331,0.000000,0.000000,0.000000,0.000000,0.000000,0.000000,0.000000,,,,,,,,,,,,,,,,,,,,,,,,,,,,,,,,,,,,,,,,,,,,,,,,,,,,,,,,,,,,,,,,,,,,,,,,,,,,,,,,,,,,,,,,
1738079382.872662,,,,,,,,,,,,,,,,,,,,,,,,,,,,,,,,,,,,,,,,,,,,,,,,,,,,,,,,,,,,,,,,,,,,,,,,,,,,,,,,,,,,,,,,,-3.071093,0.240562,0.208904,-0.135573,0.123220,-0.001857,0.000546,-0.000122,-0.047416,0.021954,-0.094717,-0.280513
1738079382.872963,-0.494739,0.028854,0.000000,0.000000,1.018312,0.000000,0.000000,0.000000,0.000000,0.000000,0.000000,0.000000,,,,,,,,,,,,,,,,,,,,,,,,,,,,,,,,,,,,,,,,,,,,,,,,,,,,,,,,,,,,,,,,,,,,,,,,,,,,,,,,,,,,,,,,
1738079382.873136,,,,,,,,,,,,,,,,,,,,,,,,,,,,,,,,,,,,,,,,,,,,,,,,,,,,,,,,,,,,,,,,,,,,,,,,,,,,,,,,,,,,,,,,,-3.070965,0.240126,0.055735,-0.005226,0.122925,-0.000528,-0.002234,-0.001856,-0.001219,0.006871,-0.079771,0.080823
1738079382.881627,-0.494716,0.028851,0.000000,0.000000,1.018328,0.000000,0.000000,0.000000,0.000000,0.000000,0.000000,0.000000,,,,,,,,,,,,,,,,,,,,,,,,,,,,,,,,,,,,,,,,,,,,,,,,,,,,,,,,,,,,,,,,,,,,,,,,,,,,,,,,,,,,,,,,
1738079382.881827,,,,,,,,,,,,,,,,,,,,,,,,,,,,,,,,,,,,,,,,,,,,,,,,,,,,,,,,,,,,,,,,,,,,,,,,,,,,,,,,,,,,,,,,,-3.070815,0.240347,-0.003237,0.031990,0.122909,0.000526,-0.000237,-0.001395,0.002617,-0.000171,-0.073830,0.079588
1738079382.890533,-0.494753,0.028849,0.000000,0.000000,1.018355,0.000000,0.000000,0.000000,0.000000,0.000000,0.000000,0.000000,,,,,,,,,,,,,,,,,,,,,,,,,,,,,,,,,,,,,,,,,,,,,,,,,,,,,,,,,,,,,,,,,,,,,,,,,,,,,,,,,,,,,,,,
1738079382.890708,,,,,,,,,,,,,,,,,,,,,,,,,,,,,,,,,,,,,,,,,,,,,,,,,,,,,,,,,,,,,,,,,,,,,,,,,,,,,,,,,,,,,,,,,-3.070806,0.240166,0.011471,0.024701,0.122719,0.000427,-0.001253,-0.002119,-0.020625,0.002119,-0.073445,-0.083740
1738079382.901766,-0.494787,0.028844,0.000000,0.000000,1.018359,0.000000,0.000000,0.000000,0.000000,0.000000,0.000000,0.000000,,,,,,,,,,,,,,,,,,,,,,,,,,,,,,,,,,,,,,,,,,,,,,,,,,,,,,,,,,,,,,,,,,,,,,,,,,,,,,,,,,,,,,,,
1738079382.902029,,,,,,,,,,,,,,,,,,,,,,,,,,,,,,,,,,,,,,,,,,,,,,,,,,,,,,,,,,,,,,,,,,,,,,,,,,,,,,,,,,,,,,,,,-3.070792,0.240090,-0.091630,0.045479,0.122935,0.000381,-0.001331,-0.000183,0.016452,-0.014491,-0.068747,0.163848
1738079382.930490,,,,,,,,,,,,,,,,,,,,,,,,,,,,,,,,,,,,,,,,,,,,,,,,,,,,,,,,,,,,,,,,,,,,,,,,,,,,,,,,,,,,,1.781728,4.074325,31787.000000,92.131287,,,,,,,,,,,,
1738079382.930537,,,,,,,,,,,,,-3.070867,0.239726,2.000000,1.607994,0.120808,0.002084,-0.018678,-0.085483,0.071110,0.031097,-0.025271,2.000000,,,,,,,,,,,,,,,,,,,,,,,,,,,,,,,,,,,,,,,,,,,,,,,,,,,,,,,,,,,,,,,,,,,,,,,,,,,,
1738079382.930557,,,,,,,,,,,,,,,,,,,,,,,,,-3.070792,0.240090,-0.091630,0.045479,0.122935,0.000381,-0.001331,-0.000183,0.016452,-0.014491,-0.068747,0.163848,,,,,,,,,,,,,,,,,,,,,,,,,,,,,,,,,,,,,,,,,,,,,,,,,,,,,,,,,,,,,,,,
1738079382.930560,,,,,,,,,,,,,,,,,,,,,,,,,,,,,,,,,,,,,-3.070294,0.237385,2.000000,2.000000,0.114886,0.043857,-0.084181,-0.153102,0.179147,0.118882,0.076889,2.000000,,,,,,,,,,,,,,,,,,,,,,,,,,,,,,,,,,,,,,,,,,,,,,,,,,,,
1738079382.930562,,,,,,,,,,,,,,,,,,,,,,,,,,,,,,,,,,,,,,,,,,,,,,,,,-3.067119,0.230882,-0.016874,2.000000,0.103891,0.107063,-0.197549,-0.276195,0.294095,0.143847,0.185814,2.000000,,,,,,,,,,,,,,,,,,,,,,,,,,,,,,,,,,,,,,,,
1738079382.930565,,,,,,,,,,,,,,,,,,,,,,,,,,,,,,,,,,,,,,,,,,,,,,,,,,,,,,,,,,,,,-3.061092,0.219308,-2.000000,2.000000,0.082137,0.100097,-0.322751,-0.573223,0.402627,0.062595,0.262182,2.000000,,,,,,,,,,,,,,,,,,,,,,,,,,,,
1738079382.930568,,,,,,,,,,,,,,,,,,,,,,,,,,,,,,,,,,,,,,,,,,,,,,,,,,,,,,,,,,,,,,,,,,,,,,,,,-3.052951,0.204161,-1.999999,2.000000,0.042758,-0.000675,-0.402660,-1.000000,0.452107,-0.070021,0.310703,-0.016857,,,,,,,,,,,,,,,,
1738079382.930925,-0.494791,0.028839,0.000000,0.000000,1.018342,0.000000,0.000000,0.000000,0.000000,0.000000,0.000000,0.000000,,,,,,,,,,,,,,,,,,,,,,,,,,,,,,,,,,,,,,,,,,,,,,,,,,,,,,,,,,,,,,,,,,,,,,,,,,,,,,,,,,,,,,,,
1738079382.931127,,,,,,,,,,,,,,,,,,,,,,,,,,,,,,,,,,,,,,,,,,,,,,,,,,,,,,,,,,,,,,,,,,,,,,,,,,,,,,,,,,,,,,,,,-3.070867,0.240463,0.008879,-0.039092,0.123233,-0.000183,0.001303,0.001661,-0.014158,-0.002321,-0.080568,-0.068967
1738079382.931427,-0.494761,0.028834,0.000000,0.000000,1.018339,0.000000,0.000000,0.000000,0.000000,0.000000,0.000000,0.000000,,,,,,,,,,,,,,,,,,,,,,,,,,,,,,,,,,,,,,,,,,,,,,,,,,,,,,,,,,,,,,,,,,,,,,,,,,,,,,,,,,,,,,,,
1738079382.931597,,,,,,,,,,,,,,,,,,,,,,,,,,,,,,,,,,,,,,,,,,,,,,,,,,,,,,,,,,,,,,,,,,,,,,,,,,,,,,,,,,,,,,,,,-3.070888,0.240218,-0.088470,-0.020132,0.123024,-0.000256,-0.000553,-0.000096,-0.016126,-0.018102,-0.079363,-0.060089
1738079382.931860,-0.494736,0.028847,0.000000,0.000000,1.018323,0.000000,0.000000,0.000000,0.000000,0.000000,0.000000,0.000000,,,,,,,,,,,,,,,,,,,,,,,,,,,,,,,,,,,,,,,,,,,,,,,,,,,,,,,,,,,,,,,,,,,,,,,,,,,,,,,,,,,,,,,,
1738079382.932023,,,,,,,,,,,,,,,,,,,,,,,,,,,,,,,,,,,,,,,,,,,,,,,,,,,,,,,,,,,,,,,,,,,,,,,,,,,,,,,,,,,,,,,,,-3.070896,0.240565,0.081055,-0.076948,0.123205,-0.000226,0.001691,0.001018,-0.021215,0.005729,-0.089839,-0.072592
1738079382.940666,-0.494738,0.028844,0.000000,0.000000,1.018339,0.000000,0.000000,0.000000,0.000000,0.000000,0.000000,0.000000,,,,,,,,,,,,,,,,,,,,,,,,,,,,,,,,,,,,,,,,,,,,,,,,,,,,,,,,,,,,,,,,,,,,,,,,,,,,,,,,,,,,,,,,
1738079382.940851,,,,,,,,,,,,,,,,,,,,,,,,,,,,,,,,,,,,,,,,,,,,,,,,,,,,,,,,,,,,,,,,,,,,,,,,,,,,,,,,,,,,,,,,,-3.070777,0.240273,-0.006903,0.001441,0.122997,0.000555,-0.000565,-0.000534,0.003550,-0.004878,-0.080622,0.097774
1738079382.950691,-0.494756,0.028847,0.000000,0.000000,1.018344,0.000000,0.000000,0.000000,0.000000,0.000000,0.000000,0.000000,,,,,,,,,,,,,,,,,,,,,,,,,,,,,,,,,,,,,,,,,,,,,,,,,,,,,,,,,,,,,,,,,,,,,,,,,,,,,,,,,,,,,,,,
1738079382.950878,,,,,,,,,,,,,,,,,,,,,,,,,,,,,,,,,,,,,,,,,,,,,,,,,,,,,,,,,,,,,,,,,,,,,,,,,,,,,,,,,,,,,,,,,-3.070738,0.240401,-0.005995,-0.017020,0.122933,0.000626,0.000372,-0.000757,-0.011251,-0.005072,-0.083626,-0.020364
1738079382.975921,,,,,,,,,,,,,,,,,,,,,,,,,,,,,,,,,,,,,,,,,,,,,,,,,,,,,,,,,,,,,,,,,,,,,,,,,,,,,,,,,,,,,2.466218,-3.597602,34078.000000,-90.500740,,,,,,,,,,,,
1738079382.976007,,,,,,,,,,,,,-3.070628,0.240644,2.000000,-1.579536,0.121841,0.008069,0.014076,-0.043412,-0.062790,0.043044,-0.125362,-2.000000,,,,,,,,,,,,,,,,,,,,,,,,,,,,,,,,,,,,,,,,,,,,,,,,,,,,,,,,,,,,,,,,,,,,,,,,,,,,
1738079382.976017,,,,,,,,,,,,,,,,,,,,,,,,,,,,,,,,,,,,,-3.069149,0.242276,-0.023828,-2.000000,0.118849,0.050146,0.070203,-0.073996,-0.169349,0.081629,-0.219256,-2.000000,,,,,,,,,,,,,,,,,,,,,,,,,,,,,,,,,,,,,,,,,,,,,,,,,,,,
1738079382.976021,,,,,,,,,,,,,,,,,,,,,,,,,,,,,,,,,,,,,,,,,,,,,,,,,-3.064970,0.246642,-2.000000,-2.000000,0.110974,0.070068,0.162756,-0.233390,-0.273950,0.010454,-0.304931,-2.000000,,,,,,,,,,,,,,,,,,,,,,,,,,,,,,,,,,,,,,,,
1738079382.976030,,,,,,,,,,,,,,,,,,,,,,,,,,,,,,,,,,,,,,,,,,,,,,,,,,,,,,,,,,,,,-3.057873,0.253748,-2.000000,-2.000000,0.091270,0.025876,0.266603,-0.573499,-0.370773,-0.116065,-0.368119,-2.000000,,,,,,,,,,,,,,,,,,,,,,,,,,,,
1738079382.976033,,,,,,,,,,,,,,,,,,,,,,,,,,,,,,,,,,,,,,,,,,,,,,,,,,,,,,,,,,,,,,,,,,,,,,,,,-3.045522,0.261128,-2.000000,-2.000000,0.054899,-0.061372,0.390333,-1.000000,-0.461535,-0.247930,-0.419958,-1.999999,,,,,,,,,,,,,,,,
1738079382.976041,,,,,,,,,,,,,,,,,,,,,,,,,-3.070738,0.240401,-0.005995,-0.017020,0.122933,0.000626,0.000372,-0.000757,-0.011251,-0.005072,-0.083626,-0.020364,,,,,,,,,,,,,,,,,,,,,,,,,,,,,,,,,,,,,,,,,,,,,,,,,,,,,,,,,,,,,,,,
1738079382.976356,-0.494779,0.028850,0.000000,0.000000,1.018349,0.000000,0.000000,0.000000,0.000000,0.000000,0.000000,0.000000,,,,,,,,,,,,,,,,,,,,,,,,,,,,,,,,,,,,,,,,,,,,,,,,,,,,,,,,,,,,,,,,,,,,,,,,,,,,,,,,,,,,,,,,
1738079382.976546,,,,,,,,,,,,,,,,,,,,,,,,,,,,,,,,,,,,,,,,,,,,,,,,,,,,,,,,,,,,,,,,,,,,,,,,,,,,,,,,,,,,,,,,,-3.070730,0.240434,0.018287,-0.070694,0.123014,0.000484,0.000454,-0.000041,-0.010559,-0.001325,-0.093423,-0.010102
1738079382.976843,-0.494772,0.028838,0.000000,0.000000,1.018354,0.000000,0.000000,0.000000,0.000000,0.000000,0.000000,0.000000,,,,,,,,,,,,,,,,,,,,,,,,,,,,,,,,,,,,,,,,,,,,,,,,,,,,,,,,,,,,,,,,,,,,,,,,,,,,,,,,,,,,,,,,
1738079382.977011,,,,,,,,,,,,,,,,,,,,,,,,,,,,,,,,,,,,,,,,,,,,,,,,,,,,,,,,,,,,,,,,,,,,,,,,,,,,,,,,,,,,,,,,,-3.070630,0.240581,0.087662,-0.103890,0.122996,0.000936,0.001203,-0.000138,-0.008157,0.011152,-0.102490,0.007338
1738079382.981340,-0.494749,0.028845,0.000000,0.000000,1.018329,0.000000,0.000000,0.000000,0.000000,0.000000,0.000000,0.000000,,,,,,,,,,,,,,,,,,,,,,,,,,,,,,,,,,,,,,,,,,,,,,,,,,,,,,,,,,,,,,,,,,,,,,,,,,,,,,,,,,,,,,,,
1738079382.981507,,,,,,,,,,,,,,,,,,,,,,,,,,,,,,,,,,,,,,,,,,,,,,,,,,,,,,,,,,,,,,,,,,,,,,,,,,,,,,,,,,,,,,,,,-3.070492,0.240765,0.053418,-0.101006,0.123040,0.001487,0.001944,0.000164,-0.011242,0.009828,-0.107204,-0.013372
1738079382.990451,-0.494749,0.028838,0.000000,0.000000,1.018321,0.000000,0.000000,0.000000,0.000000,0.000000,0.000000,0.000000,,,,,,,,,,,,,,,,,,,,,,,,,,,,,,,,,,,,,,,,,,,,,,,,,,,,,,,,,,,,,,,,,,,,,,,,,,,,,,,,,,,,,,,,
1738079382.990638,,,,,,,,,,,,,,,,,,,,,,,,,,,,,,,,,,,,,,,,,,,,,,,,,,,,,,,,,,,,,,,,,,,,,,,,,,,,,,,,,,,,,,,,,-3.070249,0.240925,-0.074903,-0.044271,0.123153,0.002500,0.002325,0.000797,-0.017082,-0.008888,-0.102799,-0.044400
1738079383.000363,-0.494750,0.028845,0.000000,0.000000,1.018341,0.000000,0.000000,0.000000,0.000000,0.000000,0.000000,0.000000,,,,,,,,,,,,,,,,,,,,,,,,,,,,,,,,,,,,,,,,,,,,,,,,,,,,,,,,,,,,,,,,,,,,,,,,,,,,,,,,,,,,,,,,
1738079383.000488,,,,,,,,,,,,,,,,,,,,,,,,,,,,,,,,,,,,,,,,,,,,,,,,,,,,,,,,,,,,,,,,,,,,,,,,,,,,,,,,,,,,,,,,,-3.069985,0.241119,0.106216,-0.061094,0.122696,0.003329,0.002787,-0.002189,0.004187,0.017553,-0.107816,0.096532
1738079383.020596,,,,,,,,,,,,,-3.069501,0.241211,2.000000,-1.623610,0.121961,0.021530,0.007230,-0.027084,-0.044734,0.069178,-0.150939,-1.968000,,,,,,,,,,,,,,,,,,,,,,,,,,,,,,,,,,,,,,,,,,,,,,,,,,,,,,,,,,,,,,,,,,,,,,,,,,,,
1738079383.020612,,,,,,,,,,,,,,,,,,,,,,,,,,,,,,,,,,,,,-3.067114,0.242010,-0.023566,-2.000000,0.119877,0.077239,0.052371,-0.048317,-0.153065,0.109300,-0.245452,-2.000000,,,,,,,,,,,,,,,,,,,,,,,,,,,,,,,,,,,,,,,,,,,,,,,,,,,,
1738079383.020618,,,,,,,,,,,,,,,,,,,,,,,,,,,,,,,,,,,,,,,,,,,,,,,,,-3.061656,0.244841,-2.000000,-2.000000,0.113088,0.110440,0.136114,-0.206186,-0.260181,0.039425,-0.332337,-2.000000,,,,,,,,,,,,,,,,,,,,,,,,,,,,,,,,,,,,,,,,
1738079383.020624,,,,,,,,,,,,,,,,,,,,,,,,,,,,,,,,,,,,,,,,,,,,,,,,,,,,,,,,,,,,,-3.053344,0.249989,-2.000000,-2.000000,0.094323,0.075438,0.232129,-0.554465,-0.358827,-0.086273,-0.397075,-2.000000,,,,,,,,,,,,,,,,,,,,,,,,,,,,
1738079383.020630,,,,,,,,,,,,,,,,,,,,,,,,,,,,,,,,,,,,,,,,,,,,,,,,,,,,,,,,,,,,,,,,,,,,,,,,,-3.040225,0.254993,-2.000000,-2.000000,0.057956,-0.006132,0.344284,-1.000000,-0.450943,-0.217556,-0.450151,-2.000000,,,,,,,,,,,,,,,,
1738079383.020636,,,,,,,,,,,,,,,,,,,,,,,,,,,,,,,,,,,,,,,,,,,,,,,,,,,,,,,,,,,,,,,,,,,,,,,,,,,,,,,,,,,,,3.963594,-2.563084,35049.000000,-93.026009,,,,,,,,,,,,
1738079383.020652,,,,,,,,,,,,,,,,,,,,,,,,,-3.069985,0.241119,0.106216,-0.061094,0.122696,0.003329,0.002787,-0.002189,0.004187,0.017553,-0.107816,0.096532,,,,,,,,,,,,,,,,,,,,,,,,,,,,,,,,,,,,,,,,,,,,,,,,,,,,,,,,,,,,,,,,
1738079383.020950,-0.494782,0.028835,0.000000,0.000000,1.018351,0.000000,0.000000,0.000000,0.000000,0.000000,0.000000,0.000000,,,,,,,,,,,,,,,,,,,,,,,,,,,,,,,,,,,,,,,,,,,,,,,,,,,,,,,,,,,,,,,,,,,,,,,,,,,,,,,,,,,,,,,,
1738079383.021155,,,,,,,,,,,,,,,,,,,,,,,,,,,,,,,,,,,,,,,,,,,,,,,,,,,,,,,,,,,,,,,,,,,,,,,,,,,,,,,,,,,,,,,,,-3.069929,0.240756,-0.135774,-0.063829,0.122869,0.002667,-0.000223,-0.000493,0.005672,-0.017468,-0.111327,0.076482
1738079383.021482,-0.494787,0.028841,0.000000,0.000000,1.018357,0.000000,0.000000,0.000000,0.000000,0.000000,0.000000,0.000000,,,,,,,,,,,,,,,,,,,,,,,,,,,,,,,,,,,,,,,,,,,,,,,,,,,,,,,,,,,,,,,,,,,,,,,,,,,,,,,,,,,,,,,,
1738079383.021622,,,,,,,,,,,,,,,,,,,,,,,,,,,,,,,,,,,,,,,,,,,,,,,,,,,,,,,,,,,,,,,,,,,,,,,,,,,,,,,,,,,,,,,,,-3.069804,0.241154,-0.060742,-0.109301,0.123102,0.002619,0.002229,0.001057,-0.001657,-0.011751,-0.122097,0.009567
1738079383.030994,-0.494779,0.028829,0.000000,0.000000,1.018332,0.000000,0.000000,0.000000,0.000000,0.000000,0.000000,0.000000,,,,,,,,,,,,,,,,,,,,,,,,,,,,,,,,,,,,,,,,,,,,,,,,,,,,,,,,,,,,,,,,,,,,,,,,,,,,,,,,,,,,,,,,
1738079383.031142,,,,,,,,,,,,,,,,,,,,,,,,,,,,,,,,,,,,,,,,,,,,,,,,,,,,,,,,,,,,,,,,,,,,,,,,,,,,,,,,,,,,,,,,,-3.069531,0.241218,0.066067,-0.078241,0.122836,0.003468,0.001947,-0.000857,0.000574,0.006347,-0.122385,0.020084
1738079383.040827,-0.494748,0.028847,0.000000,0.000000,1.018322,0.000000,0.000000,0.000000,0.000000,0.000000,0.000000,0.000000,,,,,,,,,,,,,,,,,,,,,,,,,,,,,,,,,,,,,,,,,,,,,,,,,,,,,,,,,,,,,,,,,,,,,,,,,,,,,,,,,,,,,,,,
1738079383.040947,,,,,,,,,,,,,,,,,,,,,,,,,,,,,,,,,,,,,,,,,,,,,,,,,,,,,,,,,,,,,,,,,,,,,,,,,,,,,,,,,,,,,,,,,-3.069479,0.240993,-0.017696,-0.083800,0.122866,0.002741,0.000012,-0.000423,-0.010253,-0.004311,-0.127224,-0.050907
1738079383.050901,-0.494719,0.028864,0.000000,0.000000,1.018336,0.000000,0.000000,0.000000,0.000000,0.000000,0.000000,0.000000,,,,,,,,,,,,,,,,,,,,,,,,,,,,,,,,,,,,,,,,,,,,,,,,,,,,,,,,,,,,,,,,,,,,,,,,,,,,,,,,,,,,,,,,
1738079383.050929,,,,,,,,,,,,,,,,,,,,,,,,,,,,,,,,,,,,,,,,,,,,,,,,,,,,,,,,,,,,,,,,,,,,,,,,,,,,,,,,,,,,,,,,,-3.069142,0.241444,0.084964,-0.049512,0.122979,0.003940,0.002713,0.000383,-0.010781,0.011915,-0.125699,-0.038803
1738079383.075881,,,,,,,,,,,,,,,,,,,,,,,,,,,,,,,,,,,,,,,,,,,,,,,,,,,,,,,,,,,,,,,,,,,,,,,,,,,,,,,,,,,,,3.566042,-3.645309,34445.000000,-92.362381,,,,,,,,,,,,
1738079383.075908,,,,,,,,,,,,,-3.068651,0.241718,2.000000,-1.612028,0.122091,0.020109,0.015320,-0.036075,-0.063623,0.062239,-0.169143,-2.000000,,,,,,,,,,,,,,,,,,,,,,,,,,,,,,,,,,,,,,,,,,,,,,,,,,,,,,,,,,,,,,,,,,,,,,,,,,,,
1738079383.075916,,,,,,,,,,,,,,,,,,,,,,,,,-3.069142,0.241444,0.084964,-0.049512,0.122979,0.003940,0.002713,0.000383,-0.010781,0.011915,-0.125699,-0.038803,,,,,,,,,,,,,,,,,,,,,,,,,,,,,,,,,,,,,,,,,,,,,,,,,,,,,,,,,,,,,,,,
1738079383.075924,,,,,,,,,,,,,,,,,,,,,,,,,,,,,,,,,,,,,-3.066253,0.243103,-0.023291,-2.000000,0.119472,0.073861,0.069950,-0.061731,-0.172050,0.100595,-0.264047,-2.000000,,,,,,,,,,,,,,,,,,,,,,,,,,,,,,,,,,,,,,,,,,,,,,,,,,,,
1738079383.075931,,,,,,,,,,,,,,,,,,,,,,,,,,,,,,,,,,,,,,,,,,,,,,,,,-3.060597,0.246786,-2.000000,-2.000000,0.112076,0.105077,0.162007,-0.218612,-0.278252,0.029134,-0.349565,-2.000000,,,,,,,,,,,,,,,,,,,,,,,,,,,,,,,,,,,,,,,,
1738079383.075938,,,,,,,,,,,,,,,,,,,,,,,,,,,,,,,,,,,,,,,,,,,,,,,,,,,,,,,,,,,,,-3.051724,0.252806,-2.000000,-2.000000,0.092940,0.068449,0.264621,-0.561727,-0.376271,-0.097692,-0.412081,-2.000000,,,,,,,,,,,,,,,,,,,,,,,,,,,,
1738079383.075945,,,,,,,,,,,,,,,,,,,,,,,,,,,,,,,,,,,,,,,,,,,,,,,,,,,,,,,,,,,,,,,,,,,,,,,,,-3.037620,0.258473,-2.000000,-2.000000,0.056784,-0.013593,0.382216,-1.000000,-0.468125,-0.229862,-0.462947,-2.000000,,,,,,,,,,,,,,,,
1738079383.076251,-0.494767,0.028857,0.000000,0.000000,1.018346,0.000000,0.000000,0.000000,0.000000,0.000000,0.000000,0.000000,,,,,,,,,,,,,,,,,,,,,,,,,,,,,,,,,,,,,,,,,,,,,,,,,,,,,,,,,,,,,,,,,,,,,,,,,,,,,,,,,,,,,,,,
1738079383.076502,,,,,,,,,,,,,,,,,,,,,,,,,,,,,,,,,,,,,,,,,,,,,,,,,,,,,,,,,,,,,,,,,,,,,,,,,,,,,,,,,,,,,,,,,-3.069036,0.241122,-0.039244,-0.058663,0.123077,0.003395,-0.000034,0.000859,-0.000853,-0.004538,-0.129700,0.032410
1738079383.076813,-0.494776,0.028847,0.000000,0.000000,1.018359,0.000000,0.000000,0.000000,0.000000,0.000000,0.000000,0.000000,,,,,,,,,,,,,,,,,,,,,,,,,,,,,,,,,,,,,,,,,,,,,,,,,,,,,,,,,,,,,,,,,,,,,,,,,,,,,,,,,,,,,,,,
1738079383.076955,,,,,,,,,,,,,,,,,,,,,,,,,,,,,,,,,,,,,,,,,,,,,,,,,,,,,,,,,,,,,,,,,,,,,,,,,,,,,,,,,,,,,,,,,-3.068843,0.241263,-0.028291,-0.025268,0.123148,0.003534,0.000825,0.001023,-0.009575,-0.004675,-0.127067,-0.029650
1738079383.080647,-0.494790,0.028839,0.000000,0.000000,1.018339,0.000000,0.000000,0.000000,0.000000,0.000000,0.000000,0.000000,,,,,,,,,,,,,,,,,,,,,,,,,,,,,,,,,,,,,,,,,,,,,,,,,,,,,,,,,,,,,,,,,,,,,,,,,,,,,,,,,,,,,,,,
1738079383.080686,,,,,,,,,,,,,,,,,,,,,,,,,,,,,,,,,,,,,,,,,,,,,,,,,,,,,,,,,,,,,,,,,,,,,,,,,,,,,,,,,,,,,,,,,-3.068644,0.241319,0.025121,-0.063528,0.123311,0.003671,0.000910,0.001699,-0.002863,0.002812,-0.134707,0.019518
1738079383.090727,,,,,,,,,,,,,,,,,,,,,,,,,,,,,,,,,,,,,,,,,,,,,,,,,,,,,,,,,,,,,,,,,,,,,,,,,,,,,,,,,,,,,,,,,-3.068379,0.241444,-0.088375,-0.030125,0.123293,0.004160,0.001389,0.001076,0.005305,-0.014848,-0.132316,0.062672
1738079383.091160,-0.494742,0.028826,0.000000,0.000000,1.018331,0.000000,0.000000,0.000000,0.000000,0.000000,0.000000,0.000000,,,,,,,,,,,,,,,,,,,,,,,,,,,,,,,,,,,,,,,,,,,,,,,,,,,,,,,,,,,,,,,,,,,,,,,,,,,,,,,,,,,,,,,,
1738079383.101073,-0.494725,0.028851,0.000000,0.000000,1.018320,0.000000,0.000000,0.000000,0.000000,0.000000,0.000000,0.000000,,,,,,,,,,,,,,,,,,,,,,,,,,,,,,,,,,,,,,,,,,,,,,,,,,,,,,,,,,,,,,,,,,,,,,,,,,,,,,,,,,,,,,,,
1738079383.101185,,,,,,,,,,,,,,,,,,,,,,,,,,,,,,,,,,,,,,,,,,,,,,,,,,,,,,,,,,,,,,,,,,,,,,,,,,,,,,,,,,,,,,,,,-3.068185,0.241270,-0.033617,-0.044621,0.123150,0.004077,-0.000072,-0.000101,-0.008052,-0.010140,-0.136239,-0.036273
1738079383.123368,,,,,,,,,,,,,,,,,,,,,,,,,,,,,,,,,,,,,,,,,,,,,,,,,,,,,,,,,,,,,,,,,,,,,,,,,,,,,,,,,,,,,2.141178,-3.424271,32866.000000,-92.082138,,,,,,,,,,,,
1738079383.123535,,,,,,,,,,,,,-3.067945,0.241438,2.000000,-1.607136,0.121527,0.010067,0.012605,-0.065293,-0.059765,0.037371,-0.179195,-2.000000,,,,,,,,,,,,,,,,,,,,,,,,,,,,,,,,,,,,,,,,,,,,,,,,,,,,,,,,,,,,,,,,,,,,,,,,,,,,
1738079383.123553,,,,,,,,,,,,,,,,,,,,,,,,,-3.068185,0.241270,-0.033617,-0.044621,0.123150,0.004077,-0.000072,-0.000101,-0.008052,-0.010140,-0.136239,-0.036273,,,,,,,,,,,,,,,,,,,,,,,,,,,,,,,,,,,,,,,,,,,,,,,,,,,,,,,,,,,,,,,,
1738079383.123560,,,,,,,,,,,,,,,,,,,,,,,,,,,,,,,,,,,,,-3.066352,0.242877,-0.023372,-2.000000,0.117299,0.052755,0.067549,-0.101474,-0.165831,0.076212,-0.273621,-2.000000,,,,,,,,,,,,,,,,,,,,,,,,,,,,,,,,,,,,,,,,,,,,,,,,,,,,
1738079383.123567,,,,,,,,,,,,,,,,,,,,,,,,,,,,,,,,,,,,,,,,,,,,,,,,,-3.061816,0.246744,-2.000000,-2.000000,0.108198,0.074594,0.161258,-0.254924,-0.269992,0.005369,-0.359544,-2.000000,,,,,,,,,,,,,,,,,,,,,,,,,,,,,,,,,,,,,,,,
1738079383.123573,,,,,,,,,,,,,,,,,,,,,,,,,,,,,,,,,,,,,,,,,,,,,,,,,,,,,,,,,,,,,-3.053851,0.252864,-2.000000,-2.000000,0.087788,0.033315,0.269787,-0.583803,-0.366471,-0.120889,-0.423272,-2.000000,,,,,,,,,,,,,,,,,,,,,,,,,,,,
1738079383.123580,,,,,,,,,,,,,,,,,,,,,,,,,,,,,,,,,,,,,,,,,,,,,,,,,,,,,,,,,,,,,,,,,,,,,,,,,-3.040088,0.258433,-2.000000,-2.000000,0.051510,-0.048928,0.397832,-1.000000,-0.456872,-0.252525,-0.475757,-2.000000,,,,,,,,,,,,,,,,
1738079383.123832,-0.494753,0.028841,0.000000,0.000000,1.018329,0.000000,0.000000,0.000000,0.000000,0.000000,0.000000,0.000000,,,,,,,,,,,,,,,,,,,,,,,,,,,,,,,,,,,,,,,,,,,,,,,,,,,,,,,,,,,,,,,,,,,,,,,,,,,,,,,,,,,,,,,,
1738079383.124074,,,,,,,,,,,,,,,,,,,,,,,,,,,,,,,,,,,,,,,,,,,,,,,,,,,,,,,,,,,,,,,,,,,,,,,,,,,,,,,,,,,,,,,,,-3.068006,0.241481,-0.016392,-0.034935,0.123344,0.003926,0.001214,0.001093,-0.006516,-0.008950,-0.136855,-0.016173
1738079383.124414,-0.494785,0.028837,0.000000,0.000000,1.018362,0.000000,0.000000,0.000000,0.000000,0.000000,0.000000,0.000000,,,,,,,,,,,,,,,,,,,,,,,,,,,,,,,,,,,,,,,,,,,,,,,,,,,,,,,,,,,,,,,,,,,,,,,,,,,,,,,,,,,,,,,,
1738079383.124568,,,,,,,,,,,,,,,,,,,,,,,,,,,,,,,,,,,,,,,,,,,,,,,,,,,,,,,,,,,,,,,,,,,,,,,,,,,,,,,,,,,,,,,,,-3.067723,0.241459,0.056922,0.004568,0.123071,0.004446,0.000719,-0.000876,-0.001822,0.002449,-0.132018,0.016840
1738079383.130112,-0.494800,0.028835,0.000000,0.000000,1.018358,0.000000,0.000000,0.000000,0.000000,0.000000,0.000000,0.000000,,,,,,,,,,,,,,,,,,,,,,,,,,,,,,,,,,,,,,,,,,,,,,,,,,,,,,,,,,,,,,,,,,,,,,,,,,,,,,,,,,,,,,,,
1738079383.130281,,,,,,,,,,,,,,,,,,,,,,,,,,,,,,,,,,,,,,,,,,,,,,,,,,,,,,,,,,,,,,,,,,,,,,,,,,,,,,,,,,,,,,,,,-3.067498,0.241191,-0.004020,-0.005910,0.123043,0.004460,-0.001106,-0.000780,0.011290,-0.004862,-0.133536,0.090461
1738079383.140127,-0.494757,0.028834,0.000000,0.000000,1.018345,0.000000,0.000000,0.000000,0.000000,0.000000,0.000000,0.000000,,,,,,,,,,,,,,,,,,,,,,,,,,,,,,,,,,,,,,,,,,,,,,,,,,,,,,,,,,,,,,,,,,,,,,,,,,,,,,,,,,,,,,,,
1738079383.140280,,,,,,,,,,,,,,,,,,,,,,,,,,,,,,,,,,,,,,,,,,,,,,,,,,,,,,,,,,,,,,,,,,,,,,,,,,,,,,,,,,,,,,,,,-3.067054,0.241574,0.052254,0.041233,0.122893,0.005791,0.001528,-0.001445,-0.005957,0.004316,-0.125975,-0.040157
1738079383.150110,-0.494741,0.028831,0.000000,0.000000,1.018322,0.000000,0.000000,0.000000,0.000000,0.000000,0.000000,0.000000,,,,,,,,,,,,,,,,,,,,,,,,,,,,,,,,,,,,,,,,,,,,,,,,,,,,,,,,,,,,,,,,,,,,,,,,,,,,,,,,,,,,,,,,
1738079383.150278,,,,,,,,,,,,,,,,,,,,,,,,,,,,,,,,,,,,,,,,,,,,,,,,,,,,,,,,,,,,,,,,,,,,,,,,,,,,,,,,,,,,,,,,,-3.066945,0.241511,-0.018939,-0.007479,0.123224,0.004707,0.000691,0.000976,-0.000684,-0.004936,-0.132032,0.003529
1738079383.172290,,,,,,,,,,,,,,,,,,,,,,,,,,,,,,,,,,,,,,,,,,,,,,,,,,,,,,,,,,,,,,,,,,,,,,,,,,,,,,,,,,,,,2.482300,-2.957194,33271.000000,-89.954079,,,,,,,,,,,,
1738079383.172425,,,,,,,,,,,,,-3.066646,0.241619,2.000000,-1.569995,0.121843,0.012389,0.009529,-0.056588,-0.051613,0.043324,-0.172753,-2.000000,,,,,,,,,,,,,,,,,,,,,,,,,,,,,,,,,,,,,,,,,,,,,,,,,,,,,,,,,,,,,,,,,,,,,,,,,,,,
1738079383.172435,,,,,,,,,,,,,,,,,,,,,,,,,-3.066945,0.241511,-0.018939,-0.007479,0.123224,0.004707,0.000691,0.000976,-0.000684,-0.004936,-0.132032,0.003529,,,,,,,,,,,,,,,,,,,,,,,,,,,,,,,,,,,,,,,,,,,,,,,,,,,,,,,,,,,,,,,,
1738079383.172441,,,,,,,,,,,,,,,,,,,,,,,,,,,,,,,,,,,,,-3.064958,0.242786,-0.023987,-2.000000,0.118097,0.057089,0.059953,-0.090107,-0.158207,0.082969,-0.265975,-2.000000,,,,,,,,,,,,,,,,,,,,,,,,,,,,,,,,,,,,,,,,,,,,,,,,,,,,
1738079383.172447,,,,,,,,,,,,,,,,,,,,,,,,,,,,,,,,,,,,,,,,,,,,,,,,,-3.060383,0.246236,-2.000000,-2.000000,0.109498,0.081021,0.149457,-0.244774,-0.263000,0.012740,-0.352439,-2.000000,,,,,,,,,,,,,,,,,,,,,,,,,,,,,,,,,,,,,,,,
1738079383.172453,,,,,,,,,,,,,,,,,,,,,,,,,,,,,,,,,,,,,,,,,,,,,,,,,,,,,,,,,,,,,-3.052561,0.251925,-2.000000,-2.000000,0.089411,0.041198,0.254044,-0.577855,-0.359922,-0.113085,-0.416994,-2.000000,,,,,,,,,,,,,,,,,,,,,,,,,,,,
1738079383.172459,,,,,,,,,,,,,,,,,,,,,,,,,,,,,,,,,,,,,,,,,,,,,,,,,,,,,,,,,,,,,,,,,,,,,,,,,-3.039187,0.257148,-2.000000,-2.000000,0.053041,-0.040630,0.378092,-1.000000,-0.450596,-0.244387,-0.470258,-2.000000,,,,,,,,,,,,,,,,
1738079383.172819,-0.494726,0.028845,0.000000,0.000000,1.018323,0.000000,0.000000,0.000000,0.000000,0.000000,0.000000,0.000000,,,,,,,,,,,,,,,,,,,,,,,,,,,,,,,,,,,,,,,,,,,,,,,,,,,,,,,,,,,,,,,,,,,,,,,,,,,,,,,,,,,,,,,,
1738079383.172980,,,,,,,,,,,,,,,,,,,,,,,,,,,,,,,,,,,,,,,,,,,,,,,,,,,,,,,,,,,,,,,,,,,,,,,,,,,,,,,,,,,,,,,,,-3.066553,0.241759,-0.005804,0.018486,0.123194,0.005641,0.001973,0.000500,-0.009082,-0.003694,-0.128078,-0.047920
1738079383.173277,-0.494774,0.028847,0.000000,0.000000,1.018337,0.000000,0.000000,0.000000,0.000000,0.000000,0.000000,0.000000,,,,,,,,,,,,,,,,,,,,,,,,,,,,,,,,,,,,,,,,,,,,,,,,,,,,,,,,,,,,,,,,,,,,,,,,,,,,,,,,,,,,,,,,
1738079383.173399,,,,,,,,,,,,,,,,,,,,,,,,,,,,,,,,,,,,,,,,,,,,,,,,,,,,,,,,,,,,,,,,,,,,,,,,,,,,,,,,,,,,,,,,,-3.066303,0.241579,-0.042198,0.035039,0.123003,0.005453,0.000299,-0.000796,0.006402,-0.010050,-0.124395,0.059357
1738079383.180727,-0.494740,0.029160,0.000000,0.000000,1.018253,0.000000,0.000000,0.000000,0.000000,0.000000,0.000000,0.000000,,,,,,,,,,,,,,,,,,,,,,,,,,,,,,,,,,,,,,,,,,,,,,,,,,,,,,,,,,,,,,,,,,,,,,,,,,,,,,,,,,,,,,,,
1738079383.180833,,,,,,,,,,,,,,,,,,,,,,,,,,,,,,,,,,,,,,,,,,,,,,,,,,,,,,,,,,,,,,,,,,,,,,,,,,,,,,,,,,,,,,,,,-3.065969,0.241656,-0.046074,0.044887,0.123415,0.005817,0.000670,0.001917,-0.001523,-0.012806,-0.121002,-0.006000
1738079383.190546,-0.494792,0.028844,0.000000,0.000000,1.018359,0.000000,0.000000,0.000000,0.000000,0.000000,0.000000,0.000000,,,,,,,,,,,,,,,,,,,,,,,,,,,,,,,,,,,,,,,,,,,,,,,,,,,,,,,,,,,,,,,,,,,,,,,,,,,,,,,,,,,,,,,,
1738079383.190659,,,,,,,,,,,,,,,,,,,,,,,,,,,,,,,,,,,,,,,,,,,,,,,,,,,,,,,,,,,,,,,,,,,,,,,,,,,,,,,,,,,,,,,,,-3.065619,0.241714,0.059379,0.052927,0.123236,0.006177,0.000817,0.000267,-0.002216,0.002466,-0.117417,-0.008354
1738079383.201219,-0.494737,0.028847,0.000000,0.000000,1.018324,0.000000,0.000000,0.000000,0.000000,0.000000,0.000000,0.000000,,,,,,,,,,,,,,,,,,,,,,,,,,,,,,,,,,,,,,,,,,,,,,,,,,,,,,,,,,,,,,,,,,,,,,,,,,,,,,,,,,,,,,,,
1738079383.201764,,,,,,,,,,,,,,,,,,,,,,,,,,,,,,,,,,,,,,,,,,,,,,,,,,,,,,,,,,,,,,,,,,,,,,,,,,,,,,,,,,,,,,,,,-3.065344,0.241617,0.049113,0.034447,0.123178,0.005970,-0.000011,-0.000162,-0.006053,0.003724,-0.117851,-0.028870
1738079383.234997,,,,,,,,,,,,,,,,,,,,,,,,,,,,,,,,,,,,,,,,,,,,,,,,,,,,,,,,,,,,,,,,,,,,,,,,,,,,,,,,,,,,,3.064550,-3.332236,34135.000000,-87.551903,,,,,,,,,,,,
1738079383.235094,,,,,,,,,,,,,-3.064877,0.241724,2.000000,-1.528069,0.122130,0.018015,0.010983,-0.042001,-0.058158,0.053486,-0.156811,-2.000000,,,,,,,,,,,,,,,,,,,,,,,,,,,,,,,,,,,,,,,,,,,,,,,,,,,,,,,,,,,,,,,,,,,,,,,,,,,,
1738079383.235104,,,,,,,,,,,,,,,,,,,,,,,,,,,,,,,,,,,,,-3.062773,0.242959,-0.024681,-2.000000,0.119194,0.066942,0.064066,-0.070242,-0.165624,0.092557,-0.249323,-2.000000,,,,,,,,,,,,,,,,,,,,,,,,,,,,,,,,,,,,,,,,,,,,,,,,,,,,
1738079383.235108,,,,,,,,,,,,,,,,,,,,,,,,,,,,,,,,,,,,,,,,,,,,,,,,,-3.057672,0.246582,-2.000000,-2.000000,0.111449,0.093773,0.154871,-0.227365,-0.271187,0.021639,-0.335273,-2.000000,,,,,,,,,,,,,,,,,,,,,,,,,,,,,,,,,,,,,,,,
1738079383.235116,,,,,,,,,,,,,,,,,,,,,,,,,,,,,,,,,,,,,,,,,,,,,,,,,,,,,,,,,,,,,-3.049471,0.252634,-2.000000,-2.000000,0.091985,0.054739,0.257593,-0.567876,-0.368712,-0.104728,-0.398733,-2.000000,,,,,,,,,,,,,,,,,,,,,,,,,,,,
1738079383.235120,,,,,,,,,,,,,,,,,,,,,,,,,,,,,,,,,,,,,,,,,,,,,,,,,,,,,,,,,,,,,,,,,,,,,,,,,-3.036005,0.258507,-2.000000,-2.000000,0.055713,-0.028296,0.377722,-1.000000,-0.460033,-0.236502,-0.450704,-2.000000,,,,,,,,,,,,,,,,
1738079383.235127,,,,,,,,,,,,,,,,,,,,,,,,,-3.065344,0.241617,0.049113,0.034447,0.123178,0.005970,-0.000011,-0.000162,-0.006053,0.003724,-0.117851,-0.028870,,,,,,,,,,,,,,,,,,,,,,,,,,,,,,,,,,,,,,,,,,,,,,,,,,,,,,,,,,,,,,,,
1738079383.235670,-0.494718,0.028837,0.000000,0.000000,1.018327,0.000000,0.000000,0.000000,0.000000,0.000000,0.000000,0.000000,,,,,,,,,,,,,,,,,,,,,,,,,,,,,,,,,,,,,,,,,,,,,,,,,,,,,,,,,,,,,,,,,,,,,,,,,,,,,,,,,,,,,,,,
1738079383.235908,,,,,,,,,,,,,,,,,,,,,,,,,,,,,,,,,,,,,,,,,,,,,,,,,,,,,,,,,,,,,,,,,,,,,,,,,,,,,,,,,,,,,,,,,-3.064875,0.241763,-0.054063,0.089209,0.123128,0.006996,0.000871,-0.000413,-0.005311,-0.011017,-0.107002,-0.015756
1738079383.236296,-0.494748,0.028842,0.000000,0.000000,1.018334,0.000000,0.000000,0.000000,0.000000,0.000000,0.000000,0.000000,,,,,,,,,,,,,,,,,,,,,,,,,,,,,,,,,,,,,,,,,,,,,,,,,,,,,,,,,,,,,,,,,,,,,,,,,,,,,,,,,,,,,,,,
1738079383.236491,,,,,,,,,,,,,,,,,,,,,,,,,,,,,,,,,,,,,,,,,,,,,,,,,,,,,,,,,,,,,,,,,,,,,,,,,,,,,,,,,,,,,,,,,-3.064490,0.241728,0.061321,0.113248,0.122935,0.007207,0.000401,-0.001448,-0.001552,0.005511,-0.098535,0.011525
1738079383.236876,-0.494788,0.028830,0.000000,0.000000,1.018364,0.000000,0.000000,0.000000,0.000000,0.000000,0.000000,0.000000,,,,,,,,,,,,,,,,,,,,,,,,,,,,,,,,,,,,,,,,,,,,,,,,,,,,,,,,,,,,,,,,,,,,,,,,,,,,,,,,,,,,,,,,
1738079383.237100,,,,,,,,,,,,,,,,,,,,,,,,,,,,,,,,,,,,,,,,,,,,,,,,,,,,,,,,,,,,,,,,,,,,,,,,,,,,,,,,,,,,,,,,,-3.064263,0.241583,0.001648,0.087666,0.123220,0.006403,-0.000589,0.000699,-0.004466,-0.001368,-0.097136,-0.009418
1738079383.241582,-0.494795,0.028838,0.000000,0.000000,1.018351,0.000000,0.000000,0.000000,0.000000,0.000000,0.000000,0.000000,,,,,,,,,,,,,,,,,,,,,,,,,,,,,,,,,,,,,,,,,,,,,,,,,,,,,,,,,,,,,,,,,,,,,,,,,,,,,,,,,,,,,,,,
1738079383.241846,,,,,,,,,,,,,,,,,,,,,,,,,,,,,,,,,,,,,,,,,,,,,,,,,,,,,,,,,,,,,,,,,,,,,,,,,,,,,,,,,,,,,,,,,-3.063880,0.241577,0.003682,0.098361,0.123174,0.006785,-0.000449,0.000213,-0.005645,-0.000947,-0.090970,-0.013669
1738079383.252063,-0.494773,0.028817,0.000000,0.000000,1.018329,0.000000,0.000000,0.000000,0.000000,0.000000,0.000000,0.000000,,,,,,,,,,,,,,,,,,,,,,,,,,,,,,,,,,,,,,,,,,,,,,,,,,,,,,,,,,,,,,,,,,,,,,,,,,,,,,,,,,,,,,,,
1738079383.252346,,,,,,,,,,,,,,,,,,,,,,,,,,,,,,,,,,,,,,,,,,,,,,,,,,,,,,,,,,,,,,,,,,,,,,,,,,,,,,,,,,,,,,,,,-3.063368,0.241798,0.107836,0.150092,0.122811,0.007818,0.001010,-0.002030,-0.005357,0.016596,-0.077430,-0.007839
1738079383.277180,,,,,,,,,,,,,,,,,,,,,,,,,,,,,,,,,,,,,,,,,,,,,,,,,,,,,,,,,,,,,,,,,,,,,,,,,,,,,,,,,,,,,3.896773,-3.281539,35693.000000,-80.925896,,,,,,,,,,,,
1738079383.277329,,,,,,,,,,,,,-3.062644,0.241935,2.000000,-1.412423,0.122370,0.025869,0.011363,-0.015376,-0.057274,0.068012,-0.110597,-2.000000,,,,,,,,,,,,,,,,,,,,,,,,,,,,,,,,,,,,,,,,,,,,,,,,,,,,,,,,,,,,,,,,,,,,,,,,,,,,
1738079383.277351,,,,,,,,,,,,,,,,,,,,,,,,,,,,,,,,,,,,,-3.060010,0.243181,-0.026595,-2.000000,0.120877,0.079082,0.064324,-0.035632,-0.165856,0.107321,-0.200309,-2.000000,,,,,,,,,,,,,,,,,,,,,,,,,,,,,,,,,,,,,,,,,,,,,,,,,,,,
1738079383.277359,,,,,,,,,,,,,,,,,,,,,,,,,,,,,,,,,,,,,,,,,,,,,,,,,-3.054465,0.246956,-2.000000,-2.000000,0.114612,0.107974,0.153178,-0.198257,-0.272683,0.036282,-0.286270,-2.000000,,,,,,,,,,,,,,,,,,,,,,,,,,,,,,,,,,,,,,,,
1738079383.277374,,,,,,,,,,,,,,,,,,,,,,,,,-3.063368,0.241798,0.107836,0.150092,0.122811,0.007818,0.001010,-0.002030,-0.005357,0.016596,-0.077430,-0.007839,,,,,,,,,,,,,,,,,,,,,,,,,,,,,,,,,,,,,,,,,,,,,,,,,,,,,,,,,,,,,,,,
1738079383.277381,,,,,,,,,,,,,,,,,,,,,,,,,,,,,,,,,,,,,,,,,,,,,,,,,,,,,,,,,,,,,-3.046335,0.253510,-2.000000,-2.000000,0.096136,0.068703,0.249963,-0.552056,-0.371142,-0.090209,-0.349450,-2.000000,,,,,,,,,,,,,,,,,,,,,,,,,,,,
1738079383.277387,,,,,,,,,,,,,,,,,,,,,,,,,,,,,,,,,,,,,,,,,,,,,,,,,,,,,,,,,,,,,,,,,,,,,,,,,-3.033623,0.260572,-2.000000,-2.000000,0.059856,-0.017356,0.362823,-1.000000,-0.463284,-0.222127,-0.400919,-2.000000,,,,,,,,,,,,,,,,
1738079383.277933,-0.494738,0.028824,0.000000,0.000000,1.018324,0.000000,0.000000,0.000000,0.000000,0.000000,0.000000,0.000000,,,,,,,,,,,,,,,,,,,,,,,,,,,,,,,,,,,,,,,,,,,,,,,,,,,,,,,,,,,,,,,,,,,,,,,,,,,,,,,,,,,,,,,,
1738079383.278222,,,,,,,,,,,,,,,,,,,,,,,,,,,,,,,,,,,,,,,,,,,,,,,,,,,,,,,,,,,,,,,,,,,,,,,,,,,,,,,,,,,,,,,,,-3.063128,0.241616,0.008668,0.097202,0.122994,0.006914,-0.000383,-0.000324,-0.006537,0.005460,-0.078741,-0.012566
1738079383.278672,-0.494735,0.028855,0.000000,0.000000,1.018328,0.000000,0.000000,0.000000,0.000000,0.000000,0.000000,0.000000,,,,,,,,,,,,,,,,,,,,,,,,,,,,,,,,,,,,,,,,,,,,,,,,,,,,,,,,,,,,,,,,,,,,,,,,,,,,,,,,,,,,,,,,
1738079383.278898,,,,,,,,,,,,,,,,,,,,,,,,,,,,,,,,,,,,,,,,,,,,,,,,,,,,,,,,,,,,,,,,,,,,,,,,,,,,,,,,,,,,,,,,,-3.062854,0.241443,0.036697,0.093481,0.122881,0.006483,-0.001308,-0.000902,-0.004588,0.010565,-0.074501,0.002898
1738079383.281738,-0.494752,0.028848,0.000000,0.000000,1.018354,0.000000,0.000000,0.000000,0.000000,0.000000,0.000000,0.000000,,,,,,,,,,,,,,,,,,,,,,,,,,,,,,,,,,,,,,,,,,,,,,,,,,,,,,,,,,,,,,,,,,,,,,,,,,,,,,,,,,,,,,,,
1738079383.281956,,,,,,,,,,,,,,,,,,,,,,,,,,,,,,,,,,,,,,,,,,,,,,,,,,,,,,,,,,,,,,,,,,,,,,,,,,,,,,,,,,,,,,,,,-3.062357,0.241603,-0.014222,0.173482,0.122869,0.007521,0.000045,-0.000705,-0.002091,0.003913,-0.056493,0.017012
1738079383.291644,-0.494794,0.028829,0.000000,0.000000,1.018356,0.000000,0.000000,0.000000,0.000000,0.000000,0.000000,0.000000,,,,,,,,,,,,,,,,,,,,,,,,,,,,,,,,,,,,,,,,,,,,,,,,,,,,,,,,,,,,,,,,,,,,,,,,,,,,,,,,,,,,,,,,
1738079383.291921,,,,,,,,,,,,,,,,,,,,,,,,,,,,,,,,,,,,,,,,,,,,,,,,,,,,,,,,,,,,,,,,,,,,,,,,,,,,,,,,,,,,,,,,,-3.062029,0.241454,0.031325,0.152122,0.122989,0.007235,-0.000864,0.000226,-0.002949,0.010793,-0.051379,0.006759
1738079383.301641,,,,,,,,,,,,,,,,,,,,,,,,,,,,,,,,,,,,,,,,,,,,,,,,,,,,,,,,,,,,,,,,,,,,,,,,,,,,,,,,,,,,,,,,,-3.061758,0.241218,0.033862,0.136568,0.123154,0.006686,-0.002021,0.001150,-0.008587,0.012782,-0.046365,-0.029096
1738079383.302081,-0.494770,0.028845,0.000000,0.000000,1.018321,0.000000,0.000000,0.000000,0.000000,0.000000,0.000000,0.000000,,,,,,,,,,,,,,,,,,,,,,,,,,,,,,,,,,,,,,,,,,,,,,,,,,,,,,,,,,,,,,,,,,,,,,,,,,,,,,,,,,,,,,,,
1738079383.326061,,,,,,,,,,,,,,,,,,,,,,,,,,,,,,,,,,,,,,,,,,,,,,,,,,,,,,,,,,,,,,,,,,,,,,,,,,,,,,,,,,,,,3.564300,-3.488121,35834.000000,-81.700783,,,,,,,,,,,,
1738079383.326167,,,,,,,,,,,,,-3.061152,0.241282,2.000000,-1.425948,0.122950,0.021940,0.010412,-0.009331,-0.060879,0.062209,-0.080354,-2.000000,,,,,,,,,,,,,,,,,,,,,,,,,,,,,,,,,,,,,,,,,,,,,,,,,,,,,,,,,,,,,,,,,,,,,,,,,,,,
1738079383.326185,,,,,,,,,,,,,,,,,,,,,,,,,,,,,,,,,,,,,-3.058832,0.242653,-0.026371,-2.000000,0.121749,0.070358,0.065559,-0.031884,-0.168962,0.101192,-0.170491,-2.000000,,,,,,,,,,,,,,,,,,,,,,,,,,,,,,,,,,,,,,,,,,,,,,,,,,,,
1738079383.326194,,,,,,,,,,,,,,,,,,,,,,,,,,,,,,,,,,,,,,,,,,,,,,,,,-3.053876,0.246810,-2.000000,-2.000000,0.115661,0.094559,0.155061,-0.198202,-0.275236,0.029917,-0.256214,-2.000000,,,,,,,,,,,,,,,,,,,,,,,,,,,,,,,,,,,,,,,,
1738079383.326202,,,,,,,,,,,,,,,,,,,,,,,,,,,,,,,,,,,,,,,,,,,,,,,,,,,,,,,,,,,,,-3.046556,0.253983,-2.000000,-2.000000,0.097171,0.052029,0.251428,-0.554028,-0.373297,-0.096722,-0.319108,-2.000000,,,,,,,,,,,,,,,,,,,,,,,,,,,,
1738079383.326217,,,,,,,,,,,,,,,,,,,,,,,,,-3.061758,0.241218,0.033862,0.136568,0.123154,0.006686,-0.002021,0.001150,-0.008587,0.012782,-0.046365,-0.029096,,,,,,,,,,,,,,,,,,,,,,,,,,,,,,,,,,,,,,,,,,,,,,,,,,,,,,,,,,,,,,,,
1738079383.326224,,,,,,,,,,,,,,,,,,,,,,,,,,,,,,,,,,,,,,,,,,,,,,,,,,,,,,,,,,,,,,,,,,,,,,,,,-3.034745,0.262059,-2.000000,-2.000000,0.060826,-0.036805,0.365574,-1.000000,-0.465140,-0.228742,-0.370364,-2.000000,,,,,,,,,,,,,,,,
1738079383.326705,-0.494737,0.028862,0.000000,0.000000,1.018316,0.000000,0.000000,0.000000,0.000000,0.000000,0.000000,0.000000,,,,,,,,,,,,,,,,,,,,,,,,,,,,,,,,,,,,,,,,,,,,,,,,,,,,,,,,,,,,,,,,,,,,,,,,,,,,,,,,,,,,,,,,
1738079383.326911,,,,,,,,,,,,,,,,,,,,,,,,,,,,,,,,,,,,,,,,,,,,,,,,,,,,,,,,,,,,,,,,,,,,,,,,,,,,,,,,,,,,,,,,,-3.061195,0.241323,-0.048761,0.205771,0.123222,0.008060,-0.000783,0.001210,-0.000874,0.000705,-0.028003,0.025910
1738079383.327195,-0.494736,0.028857,0.000000,0.000000,1.018342,0.000000,0.000000,0.000000,0.000000,0.000000,0.000000,0.000000,,,,,,,,,,,,,,,,,,,,,,,,,,,,,,,,,,,,,,,,,,,,,,,,,,,,,,,,,,,,,,,,,,,,,,,,,,,,,,,,,,,,,,,,
1738079383.327373,,,,,,,,,,,,,,,,,,,,,,,,,,,,,,,,,,,,,,,,,,,,,,,,,,,,,,,,,,,,,,,,,,,,,,,,,,,,,,,,,,,,,,,,,-3.060781,0.241028,-0.012864,0.197780,0.123164,0.008123,-0.002320,0.000502,0.002323,0.004250,-0.019046,0.037318
1738079383.330629,-0.494755,0.028845,0.000000,0.000000,1.018351,0.000000,0.000000,0.000000,0.000000,0.000000,0.000000,0.000000,,,,,,,,,,,,,,,,,,,,,,,,,,,,,,,,,,,,,,,,,,,,,,,,,,,,,,,,,,,,,,,,,,,,,,,,,,,,,,,,,,,,,,,,
1738079383.330806,,,,,,,,,,,,,,,,,,,,,,,,,,,,,,,,,,,,,,,,,,,,,,,,,,,,,,,,,,,,,,,,,,,,,,,,,,,,,,,,,,,,,,,,,-3.060416,0.240979,0.081162,0.103249,0.123326,0.007876,-0.001919,0.001323,-0.027856,0.019277,-0.024912,-0.154954
1738079383.340694,-0.494781,0.028853,0.000000,0.000000,1.018338,0.000000,0.000000,0.000000,0.000000,0.000000,0.000000,0.000000,,,,,,,,,,,,,,,,,,,,,,,,,,,,,,,,,,,,,,,,,,,,,,,,,,,,,,,,,,,,,,,,,,,,,,,,,,,,,,,,,,,,,,,,
1738079383.340859,,,,,,,,,,,,,,,,,,,,,,,,,,,,,,,,,,,,,,,,,,,,,,,,,,,,,,,,,,,,,,,,,,,,,,,,,,,,,,,,,,,,,,,,,-3.059804,0.240954,0.024068,0.188784,0.123068,0.009187,-0.001493,-0.000623,-0.019307,0.013820,-0.005494,-0.057174
1738079383.350751,-0.494790,0.028838,0.000000,0.000000,1.018327,0.000000,0.000000,0.000000,0.000000,0.000000,0.000000,0.000000,,,,,,,,,,,,,,,,,,,,,,,,,,,,,,,,,,,,,,,,,,,,,,,,,,,,,,,,,,,,,,,,,,,,,,,,,,,,,,,,,,,,,,,,
1738079383.350883,,,,,,,,,,,,,,,,,,,,,,,,,,,,,,,,,,,,,,,,,,,,,,,,,,,,,,,,,,,,,,,,,,,,,,,,,,,,,,,,,,,,,,,,,-3.059395,0.240768,-0.022285,0.178477,0.123069,0.008888,-0.002157,-0.000429,-0.021024,0.007298,0.002227,-0.050322
1738079383.374705,,,,,,,,,,,,,,,,,,,,,,,,,,,,,,,,,,,,,,,,,,,,,,,,,,,,,,,,,,,,,,,,,,,,,,,,,,,,,,,,,,,,,3.181854,-2.729285,35903.000000,-79.299591,,,,,,,,,,,,
1738079383.374786,,,,,,,,,,,,,-3.058767,0.240970,2.000000,-1.384039,0.122821,0.020385,0.012852,-0.009485,-0.047635,0.055534,-0.029626,-0.963209,,,,,,,,,,,,,,,,,,,,,,,,,,,,,,,,,,,,,,,,,,,,,,,,,,,,,,,,,,,,,,,,,,,,,,,,,,,,
1738079383.374801,,,,,,,,,,,,,,,,,,,,,,,,,,,,,,,,,,,,,-3.056750,0.242332,-0.040799,-2.000000,0.121705,0.062538,0.054868,-0.029436,-0.129124,0.096935,-0.117621,-2.000000,,,,,,,,,,,,,,,,,,,,,,,,,,,,,,,,,,,,,,,,,,,,,,,,,,,,
1738079383.374808,,,,,,,,,,,,,,,,,,,,,,,,,,,,,,,,,,,,,,,,,,,,,,,,,-3.052674,0.246062,-2.000000,-2.000000,0.115772,0.080894,0.130696,-0.197382,-0.235333,0.028769,-0.206048,-2.000000,,,,,,,,,,,,,,,,,,,,,,,,,,,,,,,,,,,,,,,,
1738079383.374814,,,,,,,,,,,,,,,,,,,,,,,,,,,,,,,,,,,,,,,,,,,,,,,,,,,,,,,,,,,,,-3.046817,0.252705,-2.000000,-2.000000,0.097214,0.035749,0.218797,-0.555431,-0.333237,-0.095260,-0.273953,-2.000000,,,,,,,,,,,,,,,,,,,,,,,,,,,,
1738079383.374820,,,,,,,,,,,,,,,,,,,,,,,,,,,,,,,,,,,,,,,,,,,,,,,,,,,,,,,,,,,,,,,,,,,,,,,,,-3.036924,0.260684,-2.000000,-2.000000,0.060486,-0.055023,0.330308,-1.000000,-0.424355,-0.225132,-0.330546,-1.999999,,,,,,,,,,,,,,,,
1738079383.374833,,,,,,,,,,,,,,,,,,,,,,,,,-3.059395,0.240768,-0.022285,0.178477,0.123069,0.008888,-0.002157,-0.000429,-0.021024,0.007298,0.002227,-0.050322,,,,,,,,,,,,,,,,,,,,,,,,,,,,,,,,,,,,,,,,,,,,,,,,,,,,,,,,,,,,,,,,
1738079383.375156,-0.494756,0.028828,0.000000,0.000000,1.018321,0.000000,0.000000,0.000000,0.000000,0.000000,0.000000,0.000000,,,,,,,,,,,,,,,,,,,,,,,,,,,,,,,,,,,,,,,,,,,,,,,,,,,,,,,,,,,,,,,,,,,,,,,,,,,,,,,,,,,,,,,,
1738079383.375336,,,,,,,,,,,,,,,,,,,,,,,,,,,,,,,,,,,,,,,,,,,,,,,,,,,,,,,,,,,,,,,,,,,,,,,,,,,,,,,,,,,,,,,,,-3.058649,0.240993,0.035376,0.320092,0.122691,0.010693,-0.000161,-0.002572,0.001562,0.015794,0.034754,0.100293
1738079383.375681,-0.494739,0.028837,0.000000,0.000000,1.018322,0.000000,0.000000,0.000000,0.000000,0.000000,0.000000,0.000000,,,,,,,,,,,,,,,,,,,,,,,,,,,,,,,,,,,,,,,,,,,,,,,,,,,,,,,,,,,,,,,,,,,,,,,,,,,,,,,,,,,,,,,,
1738079383.375833,,,,,,,,,,,,,,,,,,,,,,,,,,,,,,,,,,,,,,,,,,,,,,,,,,,,,,,,,,,,,,,,,,,,,,,,,,,,,,,,,,,,,,,,,-3.058330,0.240934,0.025063,0.167316,0.123017,0.009400,-0.000469,0.000156,-0.013771,0.015844,0.025296,-0.021792
1738079383.381274,-0.494736,0.028851,0.000000,0.000000,1.018348,0.000000,0.000000,0.000000,0.000000,0.000000,0.000000,0.000000,,,,,,,,,,,,,,,,,,,,,,,,,,,,,,,,,,,,,,,,,,,,,,,,,,,,,,,,,,,,,,,,,,,,,,,,,,,,,,,,,,,,,,,,
1738079383.381457,,,,,,,,,,,,,,,,,,,,,,,,,,,,,,,,,,,,,,,,,,,,,,,,,,,,,,,,,,,,,,,,,,,,,,,,,,,,,,,,,,,,,,,,,-3.057838,0.240700,-0.003386,0.186234,0.123004,0.009536,-0.001729,0.000034,-0.005216,0.012355,0.036814,0.036074
1738079383.390854,-0.494754,0.028848,0.000000,0.000000,1.018362,0.000000,0.000000,0.000000,0.000000,0.000000,0.000000,0.000000,,,,,,,,,,,,,,,,,,,,,,,,,,,,,,,,,,,,,,,,,,,,,,,,,,,,,,,,,,,,,,,,,,,,,,,,,,,,,,,,,,,,,,,,
1738079383.390912,,,,,,,,,,,,,,,,,,,,,,,,,,,,,,,,,,,,,,,,,,,,,,,,,,,,,,,,,,,,,,,,,,,,,,,,,,,,,,,,,,,,,,,,,-3.056884,0.240911,0.069341,0.315208,0.122434,0.012400,0.000056,-0.003400,0.012023,0.024307,0.067622,0.128687
1738079383.400571,-0.494775,0.028840,0.000000,0.000000,1.018350,0.000000,0.000000,0.000000,0.000000,0.000000,0.000000,0.000000,,,,,,,,,,,,,,,,,,,,,,,,,,,,,,,,,,,,,,,,,,,,,,,,,,,,,,,,,,,,,,,,,,,,,,,,,,,,,,,,,,,,,,,,
1738079383.400761,,,,,,,,,,,,,,,,,,,,,,,,,,,,,,,,,,,,,,,,,,,,,,,,,,,,,,,,,,,,,,,,,,,,,,,,,,,,,,,,,,,,,,,,,-3.056633,0.240808,-0.035510,0.158205,0.123005,0.010184,-0.000584,0.001047,-0.013629,0.010299,0.057215,-0.063832
1738079383.424170,,,,,,,,,,,,,,,,,,,,,,,,,,,,,,,,,,,,,,,,,,,,,,,,,,,,,,,,,,,,,,,,,,,,,,,,,,,,,,,,,,,,,3.364184,2.097138,33804.000000,98.590034,,,,,,,,,,,,
1738079383.424301,,,,,,,,,,,,,-3.055946,0.240881,2.000000,1.720721,0.121855,0.023613,-0.002933,-0.046830,0.036602,0.058716,0.104758,1.999810,,,,,,,,,,,,,,,,,,,,,,,,,,,,,,,,,,,,,,,,,,,,,,,,,,,,,,,,,,,,,,,,,,,,,,,,,,,,
1738079383.424312,,,,,,,,,,,,,,,,,,,,,,,,,-3.056633,0.240808,-0.035510,0.158205,0.123005,0.010184,-0.000584,0.001047,-0.013629,0.010299,0.057215,-0.063832,,,,,,,,,,,,,,,,,,,,,,,,,,,,,,,,,,,,,,,,,,,,,,,,,,,,,,,,,,,,,,,,
1738079383.424319,,,,,,,,,,,,,,,,,,,,,,,,,,,,,,,,,,,,,-3.053763,0.240123,-0.021495,2.000000,0.118588,0.072392,-0.048765,-0.077747,0.144923,0.099480,0.201292,2.000000,,,,,,,,,,,,,,,,,,,,,,,,,,,,,,,,,,,,,,,,,,,,,,,,,,,,
1738079383.424325,,,,,,,,,,,,,,,,,,,,,,,,,,,,,,,,,,,,,,,,,,,,,,,,,-3.048905,0.236991,-2.000000,2.000000,0.110551,0.098077,-0.134729,-0.230768,0.251257,0.030398,0.288724,2.000000,,,,,,,,,,,,,,,,,,,,,,,,,,,,,,,,,,,,,,,,
1738079383.424331,,,,,,,,,,,,,,,,,,,,,,,,,,,,,,,,,,,,,,,,,,,,,,,,,,,,,,,,,,,,,-3.041393,0.231117,-2.000000,2.000000,0.090933,0.057638,-0.235229,-0.566397,0.349300,-0.094699,0.354634,2.000000,,,,,,,,,,,,,,,,,,,,,,,,,,,,
1738079383.424337,,,,,,,,,,,,,,,,,,,,,,,,,,,,,,,,,,,,,,,,,,,,,,,,,,,,,,,,,,,,,,,,,,,,,,,,,-3.029150,0.224672,-2.000000,2.000000,0.054299,-0.028084,-0.353497,-1.000000,0.440767,-0.225460,0.409084,2.000000,,,,,,,,,,,,,,,,
1738079383.424615,-0.494772,0.028840,0.000000,0.000000,1.018317,0.000000,0.000000,0.000000,0.000000,0.000000,0.000000,0.000000,,,,,,,,,,,,,,,,,,,,,,,,,,,,,,,,,,,,,,,,,,,,,,,,,,,,,,,,,,,,,,,,,,,,,,,,,,,,,,,,,,,,,,,,
1738079383.424900,,,,,,,,,,,,,,,,,,,,,,,,,,,,,,,,,,,,,,,,,,,,,,,,,,,,,,,,,,,,,,,,,,,,,,,,,,,,,,,,,,,,,,,,,-3.055920,0.240736,-0.113790,0.216868,0.122951,0.011403,-0.000839,0.000409,-0.007981,-0.004523,0.074902,-0.010796
1738079383.425179,-0.494740,0.028838,0.000000,0.000000,1.018325,0.000000,0.000000,0.000000,0.000000,0.000000,0.000000,0.000000,,,,,,,,,,,,,,,,,,,,,,,,,,,,,,,,,,,,,,,,,,,,,,,,,,,,,,,,,,,,,,,,,,,,,,,,,,,,,,,,,,,,,,,,
1738079383.425312,,,,,,,,,,,,,,,,,,,,,,,,,,,,,,,,,,,,,,,,,,,,,,,,,,,,,,,,,,,,,,,,,,,,,,,,,,,,,,,,,,,,,,,,,-3.055303,0.240440,-0.036803,0.243143,0.122915,0.011687,-0.002364,0.000072,-0.007483,0.002619,0.090125,-0.004571
1738079383.430371,-0.494730,0.028844,0.000000,0.000000,1.018332,0.000000,0.000000,0.000000,0.000000,0.000000,0.000000,0.000000,,,,,,,,,,,,,,,,,,,,,,,,,,,,,,,,,,,,,,,,,,,,,,,,,,,,,,,,,,,,,,,,,,,,,,,,,,,,,,,,,,,,,,,,
1738079383.430617,,,,,,,,,,,,,,,,,,,,,,,,,,,,,,,,,,,,,,,,,,,,,,,,,,,,,,,,,,,,,,,,,,,,,,,,,,,,,,,,,,,,,,,,,-3.054771,0.240615,0.042262,0.203314,0.123388,0.011374,-0.000606,0.002888,-0.012967,0.013956,0.095644,-0.036104
1738079383.440755,-0.494761,0.028839,0.000000,0.000000,1.018343,0.000000,0.000000,0.000000,0.000000,0.000000,0.000000,0.000000,,,,,,,,,,,,,,,,,,,,,,,,,,,,,,,,,,,,,,,,,,,,,,,,,,,,,,,,,,,,,,,,,,,,,,,,,,,,,,,,,,,,,,,,
1738079383.440948,,,,,,,,,,,,,,,,,,,,,,,,,,,,,,,,,,,,,,,,,,,,,,,,,,,,,,,,,,,,,,,,,,,,,,,,,,,,,,,,,,,,,,,,,-3.053856,0.240513,0.039717,0.205784,0.123115,0.013448,-0.001032,0.000387,-0.022959,0.015645,0.106221,-0.085225
1738079383.450724,-0.494773,0.028843,0.000000,0.000000,1.018344,0.000000,0.000000,0.000000,0.000000,0.000000,0.000000,0.000000,,,,,,,,,,,,,,,,,,,,,,,,,,,,,,,,,,,,,,,,,,,,,,,,,,,,,,,,,,,,,,,,,,,,,,,,,,,,,,,,,,,,,,,,
1738079383.450870,,,,,,,,,,,,,,,,,,,,,,,,,,,,,,,,,,,,,,,,,,,,,,,,,,,,,,,,,,,,,,,,,,,,,,,,,,,,,,,,,,,,,,,,,-3.053196,0.240565,-0.069691,0.194159,0.123391,0.013374,-0.000413,0.001925,-0.024795,-0.000604,0.114573,-0.070671
1738079383.472025,,,,,,,,,,,,,,,,,,,,,,,,,,,,,,,,,,,,,,,,,,,,,,,,,,,,,,,,,,,,,,,,,,,,,,,,,,,,,,,,,,,,,2.722740,1.407515,32193.000000,100.650024,,,,,,,,,,,,
1738079383.472165,,,,,,,,,,,,,-3.052508,0.240777,2.000000,1.756674,0.121547,0.021815,0.001097,-0.075646,0.024566,0.047521,0.163345,1.992590,,,,,,,,,,,,,,,,,,,,,,,,,,,,,,,,,,,,,,,,,,,,,,,,,,,,,,,,,,,,,,,,,,,,,,,,,,,,
1738079383.472175,,,,,,,,,,,,,,,,,,,,,,,,,-3.053196,0.240565,-0.069691,0.194159,0.123391,0.013374,-0.000413,0.001925,-0.024795,-0.000604,0.114573,-0.070671,,,,,,,,,,,,,,,,,,,,,,,,,,,,,,,,,,,,,,,,,,,,,,,,,,,,,,,,,,,,,,,,
1738079383.472181,,,,,,,,,,,,,,,,,,,,,,,,,,,,,,,,,,,,,-3.050606,0.240381,-0.021011,2.000000,0.116655,0.067766,-0.039231,-0.115649,0.131701,0.089462,0.260181,2.000000,,,,,,,,,,,,,,,,,,,,,,,,,,,,,,,,,,,,,,,,,,,,,,,,,,,,
1738079383.472187,,,,,,,,,,,,,,,,,,,,,,,,,,,,,,,,,,,,,,,,,,,,,,,,,-3.046002,0.238001,-2.000000,2.000000,0.106936,0.092870,-0.122614,-0.262494,0.237262,0.021585,0.348499,2.000000,,,,,,,,,,,,,,,,,,,,,,,,,,,,,,,,,,,,,,,,
1738079383.472192,,,,,,,,,,,,,,,,,,,,,,,,,,,,,,,,,,,,,,,,,,,,,,,,,,,,,,,,,,,,,-3.038294,0.233426,-2.000000,2.000000,0.086185,0.054394,-0.226837,-0.583023,0.334681,-0.102558,0.416212,2.000000,,,,,,,,,,,,,,,,,,,,,,,,,,,,
1738079383.472198,,,,,,,,,,,,,,,,,,,,,,,,,,,,,,,,,,,,,,,,,,,,,,,,,,,,,,,,,,,,,,,,,,,,,,,,,-3.025262,0.229136,-2.000000,2.000000,0.049404,-0.026426,-0.351070,-1.000000,0.425405,-0.232500,0.472710,2.000000,,,,,,,,,,,,,,,,
1738079383.472451,-0.494778,0.028837,0.000000,0.000000,1.018333,0.000000,0.000000,0.000000,0.000000,0.000000,0.000000,0.000000,,,,,,,,,,,,,,,,,,,,,,,,,,,,,,,,,,,,,,,,,,,,,,,,,,,,,,,,,,,,,,,,,,,,,,,,,,,,,,,,,,,,,,,,
1738079383.472679,,,,,,,,,,,,,,,,,,,,,,,,,,,,,,,,,,,,,,,,,,,,,,,,,,,,,,,,,,,,,,,,,,,,,,,,,,,,,,,,,,,,,,,,,-3.052401,0.240599,0.120953,0.172116,0.123454,0.014132,-0.000085,0.001725,-0.035285,0.027685,0.120607,-0.112412
1738079383.472966,-0.494743,0.028855,0.000000,0.000000,1.018319,0.000000,0.000000,0.000000,0.000000,0.000000,0.000000,0.000000,,,,,,,,,,,,,,,,,,,,,,,,,,,,,,,,,,,,,,,,,,,,,,,,,,,,,,,,,,,,,,,,,,,,,,,,,,,,,,,,,,,,,,,,
1738079383.473129,,,,,,,,,,,,,,,,,,,,,,,,,,,,,,,,,,,,,,,,,,,,,,,,,,,,,,,,,,,,,,,,,,,,,,,,,,,,,,,,,,,,,,,,,-3.051515,0.240455,0.143033,0.175254,0.123254,0.015212,-0.000920,0.000006,-0.044999,0.037413,0.129736,-0.136971
1738079383.480705,-0.494738,0.028840,0.000000,0.000000,1.018330,0.000000,0.000000,0.000000,0.000000,0.000000,0.000000,0.000000,,,,,,,,,,,,,,,,,,,,,,,,,,,,,,,,,,,,,,,,,,,,,,,,,,,,,,,,,,,,,,,,,,,,,,,,,,,,,,,,,,,,,,,,
